~Version Information
VERS.                      2.0: CWLS Log ASCII Standard - VERSION 2.0
WRAP.                       NO: One line per depth step
~Well Information Block
STRT.FT                17.0000: 
STOP.FT             10431.5000: 
STEP.FT                 0.5000: 
NULL.                -999.2500: 
COMP.          WPX ENERGY WILLISTON, LLC: COMPANY
WELL.          OTTER WOMAN 34-27HG: WELL
FLD.                  MANDAREE: FIELD
LOC.           LOT2--247' FNL & 2311' FEL: LOCATION
CNTY.                     DUNN: COUNTY
SRVC.                         : SERVICE COMPANY
DATE.          Fri Jun 15 18-22-46 2018: LOG DATE
UWI.              33-025-03337: UNIQUE WELL ID
STAT.                N. DAKOTA: STATE
~Curve Information Block
DEPT.FT            0 000 00 00: Depth
LTEN.lb                       : Surface Line Tension
GR.GAPI                       : Gamma Ray
AMP3FT.mV                     : AMP3FT Amplitude
TT3FT.usec                    : 3FT Travel Time
AMPMIN.                       : Minimum Sector Amplitude
AMPMAX.                       : Maximum Sector Amplitude
AMPAVG.                       : Average Sector Amplitude
CCL.                          : Casing Collar Locator
~Parameter Information Block
~A  Depth       LTEN         GR        AMP3FT      TT3FT       AMPMIN      AMPMAX      AMPAVG       CCL     
# ...
  6954.5000   1438.6755     70.2913     27.0099    288.4548     38.5898     46.5237     43.4059      0.0000
  6955.0000   1449.7549     66.8108     28.0199    288.4211     39.9384     49.8405     44.7964      0.0000
  6955.5000   1473.4965     52.6596     28.4795    288.6814     42.1496     50.9695     46.1804      0.0000
  6956.0000   1467.1654     45.3148     30.5174    288.4774     44.4835     53.3705     49.2285      0.0000
  6956.5000   1442.6324     42.0771     33.0063    288.3722     49.1932     57.8428     53.2061      0.0000
  6957.0000   1451.3376     43.3050     33.5737    288.8341     50.7262     60.5979     54.9298      0.0000
  6957.5000   1440.2583     45.9083     34.3382    288.9323     51.0155     62.9000     56.2782      0.0000
  6958.0000   1452.1290     48.2772     36.1902    288.9137     51.3648     66.1874     58.2107      0.0000
  6958.5000   1470.3309     56.4447     36.3639    289.1689     51.5491     65.8570     58.2587      0.0000
  6959.0000   1452.1290     55.7367     35.5086    289.1217     50.5186     65.2546     57.7589      0.0000
  6959.5000   1438.6755     49.2557     35.2241    289.0085     49.9216     67.0939     57.8810      0.0000
  6960.0000   1447.3807     50.2621     35.9327    289.0078     50.6762     66.9371     58.1072      0.0000
  6960.5000   1437.8842     52.1407     35.8324    288.8928     51.5284     69.3535     58.7831      0.0000
  6961.0000   1449.7549     55.2734     34.9003    288.7371     50.9632     68.9116     57.9877      0.0000
  6961.5000   1479.8275     65.5117     35.3800    288.6541     49.8537     69.1820     58.1053      0.0000
  6962.0000   1460.0430     66.5891     35.9796    288.6786     48.2134     68.1672     57.6120      0.0000
  6962.5000   1445.7980     53.2348     35.1534    288.8170     45.7236     66.5081     55.5471      0.0000
  6963.0000   1449.7549     38.4576     33.9040    288.6674     44.7713     65.9733     53.8850      0.0000
  6963.5000   1439.4669     33.3896     32.6328    288.4330     41.4417     66.6516     52.5372      0.0000
  6964.0000   1455.2946     37.0627     31.7876    288.4294     37.9578     67.9375     51.7066      0.0000
  6964.5000   1471.9137     47.7830     32.1395    288.2188     37.3203     69.9089     51.4326      0.0000
  6965.0000   1455.2946     63.3977     30.9914    288.3419     36.4725     68.2919     50.4982      0.0000
  6965.5000   1442.6324     71.4097     29.8294    288.4439     35.7968     65.6764     49.0712      0.0000
  6966.0000   1445.7980     70.5316     29.1995    288.4655     34.3830     66.4522     48.2505      0.0000
  6966.5000   1435.5100     69.3617     27.7312    288.5426     33.3043     65.3047     46.3241      0.0000
  6967.0000   1445.7980     75.0232     26.5433    288.9636     31.7482     63.5012     45.3214      0.0000
  6967.5000   1445.0066     75.6707     26.5352    289.0505     32.1535     62.3137     45.1066      0.0000
  6968.0000   1445.0066     62.3460     27.4727    289.0695     31.9019     59.9981     44.5931      0.0000
  6968.5000   1445.7980     45.8247     26.9079    289.3170     31.4430     56.8172     43.5966      0.0000
  6969.0000   1446.5894     45.7902     24.8708    290.1855     30.2980     53.5282     40.4214      0.0000
  6969.5000   1435.5100     60.9043     21.9890    293.1555     24.3796     45.6727     34.1580      0.0000
  6970.0000   1442.6324     74.9923     21.3984    297.4693     20.1797     39.2813     29.5601      0.0000
  6970.5000   1468.7482     74.6781     17.8289    303.9810     15.7923     31.2967     22.6073      0.0000
  6971.0000   1456.0859     64.6021     14.7246    318.3542     12.4619     27.1747     19.3495      0.0000
  6971.5000   1441.8411     61.9987     13.3882    326.1284     11.2059     26.6656     18.7810      2.0000
  6972.0000   1452.1290     60.5450     13.5291    333.0555     13.0550     29.8893     20.2362      0.0000
  6972.5000   1447.3807     62.4496     19.3328    323.2929     20.0835     45.6646     31.4306      0.0000
  6973.0000   1465.5826     71.5111     26.8093    301.1139     29.2092     62.6062     44.3887      0.0000
  6973.5000   1463.9999     81.5301     27.4673    291.8983     32.5019     61.1577     45.6439      0.0000
  6974.0000   1453.7118     90.2637     28.4783    290.0916     34.1556     62.2395     46.8456      0.0000
  6974.5000   1434.7186    104.7288     30.0611    289.9724     35.5893     63.6756     48.0140      0.0000
  6975.0000   1448.9635    118.1556     30.5415    290.0208     36.8096     60.3968     48.3999      0.0000
  6975.5000   1440.2583    116.4180     30.2119    290.0503     37.1720     59.1034     48.0133      0.0000
  6976.0000   1471.9137    111.2594     30.5203    289.9114     39.1858     57.4368     48.7441      0.0000
  6976.5000   1477.4534    105.7630     30.1927    289.6380     40.9782     57.9219     49.2234      0.0000
  6977.0000   1458.4601    110.9455     30.0441    289.5416     41.3696     58.3591     49.8722      0.0000
  6977.5000   1438.6755    115.3175     30.4478    289.9329     42.1816     59.0227     50.0847      0.0000
  6978.0000   1448.9635    102.4841     30.8024    290.2139     44.2234     58.7553     50.1741      0.0000
  6978.5000   1454.5032     93.8652     30.9927    290.2914     45.0968     58.0384     50.5965      0.0000
  6979.0000   1478.2448     95.4421     30.7750    290.5020     44.3018     57.5934     50.1054      0.0000
  6979.5000   1475.8706    103.4569     30.5005    290.7518     44.4575     55.4653     49.4293      0.0000
  6980.0000   1464.7913    107.6794     30.1097    290.4976     43.7650     54.1294     48.5715      0.0000
  6980.5000   1442.6324    106.5544     30.4612    290.1702     43.9807     53.6700     48.9443      0.0000
  6981.0000   1457.6687    113.3794     30.0575    290.4439     44.3564     54.0555     48.9291      0.0000
  6981.5000   1454.5032    123.8599     28.9579    290.7911     42.6604     54.2486     47.1489      0.0000
  6982.0000   1471.1223    117.9317     28.4493    291.0581     42.2915     52.9989     45.8831      0.0000
  6982.5000   1476.6620    108.1486     27.9054    290.9866     41.4030     51.2347     45.2424      0.0000
  6983.0000   1465.5826    116.6417     27.5346    290.7948     40.8770     49.1573     44.5489      0.0000
  6983.5000   1442.6324    122.0923     28.5390    290.3096     41.8754     49.3977     45.4133      0.0000
  6984.0000   1452.9204    120.7136     30.1715    289.7198     42.9299     51.8882     47.3746      0.0000
  6984.5000   1460.0430    115.9779     31.2796    289.8288     44.3025     54.5134     49.1022      0.0000
  6985.0000   1482.9930     99.9143     31.7876    290.1511     44.8983     56.1339     50.6348      0.0000
  6985.5000   1482.9930     92.8009     32.4842    290.1958     47.1056     56.9188     52.0449      0.0000
  6986.0000   1476.6620     90.9377     33.0182    290.0265     49.9108     57.7975     53.6109      0.0000
  6986.5000   1443.4238     78.3481     34.6087    289.8142     51.4134     60.9135     56.2517      0.0000
  6987.0000   1441.8411     59.5458     36.4434    289.5623     51.6601     64.1249     57.4006      0.0000
  6987.5000   1447.3807     52.1476     35.9422    289.3858     49.2743     65.0515     56.4938      0.0000
  6988.0000   1465.5826     60.2980     34.9720    289.3460     48.3474     66.0783     56.3671      0.0000
  6988.5000   1463.9999     68.6281     35.5621    289.1161     50.5410     66.7671     57.7320      0.0000
  6989.0000   1445.0066     60.7683     36.5662    288.9485     52.4927     66.9529     59.0949      0.0000
  6989.5000   1445.7980     51.4008     35.6687    288.9288     51.8076     65.4860     57.8524      0.0000
  6990.0000   1441.8411     54.8751     33.8622    289.1952     48.1853     61.8165     54.9487      0.0000
  6990.5000   1444.2152     52.8191     33.0703    289.3456     42.3962     59.3840     51.2947      0.0000
  6991.0000   1470.3309     44.4235     31.2728    289.1619     38.7360     56.1514     47.1268      0.0000
  6991.5000   1479.8275     45.9417     27.1538    289.2441     36.1530     50.0693     42.0709      0.0000
