~Version Information
VERS.                      2.0: CWLS Log ASCII Standard - VERSION 2.0
WRAP.                       NO: One line per depth step
~Well Information Block
STRT.FT             10330.5000: 
STOP.FT                16.5000: 
STEP.FT                -0.5000: 
NULL.                -999.2500: 
COMP.          WPX ENERGY WILLISTON, LLC: COMPANY
WELL.          OTTER WOMAN 34-27HP: WELL
FLD.                  MANDAREE: FIELD
LOC.           LOT2--249' FNL & 2281' FEL: LOCATION
CNTY.                     DUNN: COUNTY
SRVC.                         : SERVICE COMPANY
DATE.          Fri Jun 15 11-35-34 2018: LOG DATE
UWI.              33-025-03338: UNIQUE WELL ID
STAT.                       ND: STATE
~Curve Information Block
DEPT.FT            0 000 00 00: Depth
LTEN.lb                       : Surface Line Tension
GR.GAPI                       : Gamma Ray
AMP3FT.mV                     : AMP3FT Amplitude
TT3FT.usec                    : 3FT Travel Time
CCL.                          : Casing Collar Locator
AMPMIN.                       : Minimum Sector Amplitude
AMPMAX.                       : Maximum Sector Amplitude
AMPAVG.                       : Average Sector Amplitude
~Parameter Information Block
~A  Depth       LTEN         GR        AMP3FT      TT3FT        CCL        AMPMIN      AMPMAX      AMPAVG   
# ...
   730.5000    344.9494     55.6904     56.7429    292.9044      0.0000     88.1886     94.5397     91.6833
   730.0000    336.1263     67.5304     56.8351    292.9139      0.0000     88.3033     94.5773     91.8690
   729.5000    339.3347     77.6788     56.8945    292.9087      0.0000     88.1004     94.7672     91.9895
   729.0000    354.5747     75.2094     57.0264    292.9105      0.0000     87.8148     94.6632     92.1627
   728.5000    352.1684     74.6461     57.4896    292.8152      0.0000     88.2182     95.2162     92.5528
   728.0000    344.9494     76.7415     58.0829    292.6866      0.0000     89.1794     96.0336     93.4649
   727.5000    344.9494     66.9161     58.5830    292.6703      0.0000     90.3975     96.5069     94.2682
   727.0000    338.5326     59.1539     58.7606    292.7363      0.0000     91.2402     96.7806     94.7048
   726.5000    345.7515     65.6310     58.9431    292.7401      0.0000     91.1267     97.6823     95.0180
   726.0000    350.5641     73.9966     59.0393    292.7142      0.0000     90.3561     98.2564     95.1606
   725.5000    352.9705     70.5916     59.2700    292.6642      0.0000     90.3212     99.0886     95.5003
   725.0000    336.1263     64.6686     59.6867    292.6073      0.0000     91.1640    100.0416     96.0307
   724.5000    332.1158     65.0715     59.8926    292.5834      0.0000     91.1580    100.8901     96.3338
   724.0000    331.3137     62.2310     59.9027    292.5923      0.0000     90.5577    101.4348     96.3486
   723.5000    348.1578     55.0766     59.5308    292.6891      0.0000     89.7945    101.6078     96.1238
   723.0000    341.7410     49.2337     59.1428    292.8825      0.0000     89.2809    101.0291     95.6801
   722.5000    345.7515     52.4407     56.3780    293.9710      0.0000     84.3546     93.4227     89.4413
   722.0000    331.3137     63.5458     49.9326    297.2669      0.0000     68.8625     75.3571     71.3679
   721.5000    328.1053     75.0548     40.3024    301.9768      0.0000     49.9345     57.4009     52.5978
   721.0000    342.5431     74.5118     32.1641    302.8376      0.0000     43.1164     49.4631     46.0012
   720.5000    349.7621     59.6938     31.5658    302.1745      0.0000     44.3941     50.2392     47.3290
   720.0000    342.5431     54.0683     31.5035    302.2679      0.0000     44.4126     49.7055     47.0135
   719.5000    347.3557     56.2385     35.3579    302.7064      0.0000     46.5049     52.3980     49.0487
   719.0000    328.9074     61.2607     44.4322    300.2538      0.0000     57.3577     64.9514     60.1629
   718.5000    329.7095     63.9013     44.9113    295.9507      0.0000     65.0222     71.5791     68.4606
   718.0000    337.7305     63.8204     48.9838    293.7108      0.0000     74.1793     82.7737     78.8430
   717.5000    330.5116     68.7123     52.1646    293.1011      0.0000     80.2995     87.6490     84.2653
   717.0000    349.7621     71.1577     53.3807    292.9852      0.0000     82.9753     88.2577     85.9010
   716.5000    336.1263     67.2689     53.8585    292.9935      0.0000     84.2911     87.7950     86.4647
   716.0000    325.6990     73.6148     54.2404    293.0017      0.0000     85.6210     88.6704     87.0979
   715.5000    332.9179     80.4196     54.9276    292.9427      0.0000     86.8779     89.6415     87.9675
   715.0000    332.9179     78.8624     55.5752    292.8405      0.0000     87.8768     90.6002     89.0474
   714.5000    332.1158     75.6523     55.9342    292.8345      0.0000     88.2381     90.9355     89.7027
   714.0000    350.5641     68.1195     56.0426    292.9082      0.0000     87.7048     91.1104     90.0152
   713.5000    336.1263     57.7207     56.2051    292.9031      0.0000     86.9416     92.0207     90.3332
   713.0000    326.5011     53.5328     56.3686    292.8651      0.0000     86.3417     93.2112     90.4181
   712.5000    338.5326     56.0969     56.2516    292.9047      0.0000     85.9184     93.5850     90.2253
   712.0000    323.2927     64.6353     56.1232    292.9327      0.0000     85.5395     94.2056     90.2693
   711.5000    337.7305     83.4883     56.1900    292.9431      0.0000     85.8002     94.5860     90.5001
   711.0000    350.5641     93.9373     56.2450    292.9455      0.0000     86.1323     94.8029     90.7287
   710.5000    346.5536     86.0496     56.3795    292.9390      0.0000     86.0090     95.1975     90.9822
   710.0000    327.3032     78.8499     56.7691    292.9133      0.0000     85.9435     95.5727     91.1963
   709.5000    339.3347     73.1583     56.8313    292.8925      0.0000     85.8340     95.7640     91.2249
   709.0000    326.5011     71.7114     56.6934    292.8874      0.0000     86.6064     95.9956     91.6433
   708.5000    342.5431     71.5544     56.9111    292.8706      0.0000     87.2650     96.2956     91.9119
   708.0000    343.3452     66.7207     56.9676    292.8542      0.0000     86.9995     96.6219     91.8484
   707.5000    345.7515     65.3513     56.8630    292.8687      0.0000     86.4411     96.6573     91.6054
   707.0000    331.3137     68.1151     56.8639    292.9143      0.0000     86.2337     96.6101     91.4380
   706.5000    327.3032     70.3363     56.7866    292.8718      0.0000     85.7687     96.6189     91.3528
   706.0000    324.0948     66.4950     56.7090    292.8312      0.0000     85.7340     96.5145     91.3854
   705.5000    340.9389     56.0532     56.7696    292.8718      0.0000     85.7098     96.4854     91.3328
   705.0000    344.9494     55.6976     56.8961    292.8848      0.0000     85.8309     96.9711     91.5083
   704.5000    336.9284     74.2581     57.0116    292.9066      0.0000     86.2143     97.3192     91.9046
   704.0000    328.1053     94.2978     57.2081    292.9153      0.0000     86.5669     97.5134     92.1626
   703.5000    331.3137     91.7639     57.3577    292.8899      0.0000     86.4995     97.3269     92.0566
   703.0000    334.5221     74.5798     57.0274    292.8718      0.0000     86.7618     97.3683     92.1097
   702.5000    328.9074     64.0711     56.9129    292.8833      0.0000     86.9781     97.7595     92.1542
   702.0000    342.5431     67.4695     57.0689    292.9301      0.0000     86.9569     97.8271     92.2099
   701.5000    334.5221     74.3366     57.3091    292.9432      0.0000     87.2728     97.7437     92.5926
   701.0000    327.3032     74.6457     57.6567    292.9181      0.0000     87.4636     97.7175     92.8286
   700.5000    335.3242     77.3136     57.8273    292.8064      0.0000     87.6187     98.0241     93.1122
   700.0000    333.7200     83.2485     57.8082    292.7587      0.0000     87.5619     98.5469     93.2366
   699.5000    340.1368     86.2801     57.4186    292.8157      0.0000     87.1154     97.9855     92.6872
   699.0000    346.5536     86.6183     57.1032    292.8245      0.0000     87.5181     97.5385     92.4875
   698.5000    330.5116     92.6538     57.1436    292.8835      0.0000     88.2575     97.5001     92.6072
   698.0000    328.9074     92.7821     57.3861    292.9133      0.0000     88.8536     97.0286     92.6514
   697.5000    338.5326     81.5832     57.6264    292.8503      0.0000     89.2527     97.0382     92.8656
   697.0000    329.7095     60.1007     57.7662    292.8313      0.0000     89.2861     97.0437     92.8049
   696.5000    335.3242     44.7273     57.8815    292.8765      0.0000     89.4909     96.7993     92.7793
   696.0000    342.5431     55.4469     57.5406    292.9474      0.0000     89.2185     96.5048     92.5771
   695.5000    346.5536     73.9278     57.1615    292.9677      0.0000     88.8805     96.4448     92.3708
   695.0000    324.8969     72.9221     56.9954    292.9545      0.0000     88.7530     96.5030     92.3448
   694.5000    337.7305     64.4506     56.8687    292.9362      0.0000     88.2371     96.4026     92.1299
   694.0000    322.4906     73.0591     56.8397    292.9189      0.0000     87.9002     96.1019     91.7945
   693.5000    343.3452     85.7145     56.8161    292.9038      0.0000     88.0066     96.1116     91.4890
