~Version Information
VERS.                      2.0: CWLS Log ASCII Standard - VERSION 2.0
WRAP.                       NO: One line per depth step
~Well Information Block
STRT.FT             10330.5000: 
STOP.FT                16.5000: 
STEP.FT                -0.5000: 
NULL.                -999.2500: 
COMP.          WPX ENERGY WILLISTON, LLC: COMPANY
WELL.          OTTER WOMAN 34-27HP: WELL
FLD.                  MANDAREE: FIELD
LOC.           LOT2--249' FNL & 2281' FEL: LOCATION
CNTY.                     DUNN: COUNTY
SRVC.                         : SERVICE COMPANY
DATE.          Fri Jun 15 11-35-34 2018: LOG DATE
UWI.              33-025-03338: UNIQUE WELL ID
STAT.                       ND: STATE
~Curve Information Block
DEPT.FT            0 000 00 00: Depth
LTEN.lb                       : Surface Line Tension
GR.GAPI                       : Gamma Ray
AMP3FT.mV                     : AMP3FT Amplitude
TT3FT.usec                    : 3FT Travel Time
CCL.                          : Casing Collar Locator
AMPMIN.                       : Minimum Sector Amplitude
AMPMAX.                       : Maximum Sector Amplitude
AMPAVG.                       : Average Sector Amplitude
~Parameter Information Block
~A  Depth       LTEN         GR        AMP3FT      TT3FT        CCL        AMPMIN      AMPMAX      AMPAVG   
# ...
  5530.5000   1235.2833    127.5615     19.1913    337.6752      0.0000     26.2260     33.3292     29.9872
  5530.0000   1251.3254    126.7286     20.6377    337.9164      0.0000     28.8616     35.8048     32.6168
  5529.5000   1236.0854    120.9224     21.5217    338.0208      0.0000     30.5524     37.0684     33.9765
  5529.0000   1252.9297    112.2084     21.2812    337.8728      0.0000     30.0870     36.9793     33.5654
  5528.5000   1256.1381    116.7941     21.2189    337.6599      0.0000     30.2258     37.7392     33.9243
  5528.0000   1248.1171    120.7784     22.1225    337.6920      0.0000     31.4815     39.3616     35.5472
  5527.5000   1236.8876    123.2426     22.5963    337.7931      0.0000     32.0729     39.8247     36.1415
  5527.0000   1244.1066    119.6505     21.0049    337.5876      0.0000     29.1144     37.0413     33.0811
  5526.5000   1230.4708    110.0025     17.8629    337.5550      0.0000     23.6176     30.8217     27.3266
  5526.0000   1250.5233    105.9377     15.3540    337.6693      0.0000     20.5773     26.4172     23.4693
  5525.5000   1256.9402    107.9781     13.9912    337.5359      0.0000     19.4976     23.4724     21.4403
  5525.0000   1236.0854    119.2910     13.7820    337.5161      0.0000     19.8135     22.3060     20.9363
  5524.5000   1239.2939    134.2654     15.0151    337.5328      0.0000     21.8484     24.3945     22.8521
  5524.0000   1244.1066    142.3721     17.5931    336.0100      0.0000     24.8609     29.8701     27.2111
  5523.5000   1230.4708    146.2316     21.9763    323.9956      0.0000     30.8059     39.1747     34.8138
  5523.0000   1229.6687    141.7307     27.4726    304.6399      0.0000     39.5394     49.3247     44.3873
  5522.5000   1248.9192    124.5283     32.8522    297.7382      0.0000     48.0610     57.2730     52.2076
  5522.0000   1236.8876    113.1276     38.8342    300.5840      0.0000     48.6774     62.0793     57.5505
  5521.5000   1227.2623    105.6323     35.8345    316.5781      0.0000     45.1786     54.0617     49.2625
  5521.0000   1237.6897     96.1780     21.5856    338.1333      0.0000     28.1810     32.2291     30.2866
  5520.5000   1220.0435     99.8778     16.4464    344.5807      0.0000     22.6266     25.8326     24.4566
  5520.0000   1245.7107    111.8887     13.7919    346.4375      0.0000     18.5816     21.5032     20.3007
  5519.5000   1248.9192    125.8923     11.5589    354.8365      0.0000     14.8408     16.3667     15.8877
  5519.0000   1237.6897    138.7156     11.5488    355.3457      0.0000     15.0481     16.8058     15.5837
  5518.5000   1229.6687    148.4467     12.8116    343.6565      0.0000     18.0762     19.3748     18.7511
  5518.0000   1236.8876    150.4363     15.2852    338.6638      0.0000     21.7192     24.8877     23.4642
  5517.5000   1222.4497    149.3655     16.8777    337.7391      0.0000     24.1624     27.8113     25.9909
  5517.0000   1253.7317    151.9370     17.9610    337.6773      0.0000     24.9152     30.4560     27.5988
  5516.5000   1257.7423    157.2574     19.5065    338.0583      0.0000     27.2495     34.0004     30.2925
  5516.0000   1246.5128    156.0953     20.9992    338.2960      0.0000     29.9240     36.7630     32.8813
  5515.5000   1234.4813    144.3581     21.9644    338.2161      0.0000     31.5387     37.4350     34.1866
  5515.0000   1247.3149    133.3585     22.3325    336.5309      0.0000     32.3751     37.7204     34.8694
  5514.5000   1232.0750    122.1517     23.4737    324.6877      0.0000     34.0351     40.5045     37.1326
  5514.0000   1240.8981    118.3205     24.4859    311.8904      0.0000     36.2768     42.6104     38.9762
  5513.5000   1247.3149    127.3381     24.1400    320.7322      0.0000     35.3810     42.0463     38.1722
  5513.0000   1233.6792    135.6185     23.3321    326.9828      0.0000     33.6422     40.8408     36.9015
  5512.5000   1230.4708    137.9717     22.6577    334.3706      0.0000     32.5773     39.6860     36.1326
  5512.0000   1240.8981    146.9860     22.5232    337.8919      0.0000     31.9771     39.1838     35.5939
  5511.5000   1231.2728    149.1702     21.4848    337.7422      0.0000     29.6363     37.6176     33.6073
  5511.0000   1252.9297    135.7344     19.8828    337.6974      0.0000     27.8680     34.6251     31.1249
  5510.5000   1254.5338    118.0300     18.8172    337.9621      0.0000     27.3981     31.7178     29.7025
  5510.0000   1234.4813    108.7885     18.5258    338.2564      0.0000     27.4741     30.9403     29.2159
  5509.5000   1231.2728    105.0823     17.6144    338.3312      0.0000     24.8090     29.8658     27.2402
  5509.0000   1245.7107    101.5358     16.1397    337.9904      0.0000     21.0613     28.5222     24.5122
  5508.5000   1246.5128     87.4780     14.8065    337.6994      0.0000     17.6146     27.9863     22.4582
  5508.0000   1252.9297     62.2852     14.0837    337.9701      0.0000     16.5066     27.7511     21.5039
  5507.5000   1249.7212     44.9425     14.1915    337.7937      0.0000     18.2616     27.3256     21.9824
  5507.0000   1236.8876     47.1709     15.1117    337.0334      0.0000     21.0860     27.2749     23.7513
  5506.5000   1237.6897     59.6279     16.2990    336.4513      0.0000     23.5982     28.3772     25.8506
  5506.0000   1248.1171     62.8448     16.9280    335.8105      0.0000     25.3629     29.7732     27.1765
  5505.5000   1244.1066     55.7659     17.2257    335.7379      0.0000     25.6284     30.4184     27.5247
  5505.0000   1252.1276     57.5237     17.6086    335.9278      0.0000     26.1414     30.0001     27.6227
  5504.5000   1252.9297     63.7311     17.9327    335.9731      0.0000     26.0619     30.2720     27.9082
  5504.0000   1236.0854     57.5559     18.0245    335.9232      0.0000     26.4518     31.2793     28.6828
  5503.5000   1234.4813     50.7522     18.5701    335.7515      0.0000     28.1369     32.0636     29.9366
  5503.0000   1229.6687     58.7850     19.2488    335.5415      0.0000     29.5612     32.5555     30.8783
  5502.5000   1233.6792     64.4896     19.5494    335.6195      0.0000     29.7234     33.0589     31.3692
  5502.0000   1234.4813     63.1925     19.2068    335.8445      0.0000     28.9750     33.3714     30.9361
  5501.5000   1243.3044     60.4624     19.3389    336.0171      0.0000     28.4960     33.8452     30.8560
  5501.0000   1230.4708     62.7752     19.6559    336.0312      0.0000     28.3705     34.5764     31.4124
  5500.5000   1230.4708     70.4753     20.2641    335.8774      0.0000     29.4474     34.8554     32.1770
  5500.0000   1225.6582     62.2516     20.6595    335.8244      0.0000     30.7841     34.9111     32.7624
  5499.5000   1242.5023     41.9837     20.8788    336.1049      0.0000     31.0905     35.3613     33.2688
  5499.0000   1248.9192     38.1894     21.1672    336.3993      0.0000     32.0077     36.0755     33.8200
  5498.5000   1252.9297     44.3530     20.8860    336.6333      0.0000     31.3902     35.8645     33.2181
  5498.0000   1235.2833     45.1555     20.3022    336.5944      0.0000     30.2899     34.6307     32.1680
  5497.5000   1230.4708     42.3564     19.8532    336.4499      0.0000     29.3795     33.7874     31.4705
  5497.0000   1228.0645     44.5554     19.8029    336.3249      0.0000     29.5425     32.9153     31.1704
  5496.5000   1241.7002     54.4609     20.2469    336.1108      0.0000     30.5970     33.1355     31.8887
  5496.0000   1248.1171     63.3251     20.3255    335.8951      0.0000     30.3930     33.6599     32.0796
  5495.5000   1251.3254     66.3148     19.7627    335.8974      0.0000     29.4447     32.9548     30.9602
  5495.0000   1233.6792     71.7499     18.5228    336.2664      0.0000     27.6262     30.6442     28.8449
  5494.5000   1236.0854     94.5359     17.3549    336.4636      0.0000     26.0253     28.3229     26.9773
  5494.0000   1218.4392    122.7025     17.3931    336.7018      0.0000     26.1318     28.3514     27.1322
  5493.5000   1228.8666    143.4812     17.7670    336.9216      0.0000     26.7813     28.7183     27.7528
