~Version Information
VERS.                      2.0: CWLS Log ASCII Standard - VERSION 2.0
WRAP.                       NO: One line per depth step
~Well Information Block
STRT.FT             10330.5000: 
STOP.FT                16.5000: 
STEP.FT                -0.5000: 
NULL.                -999.2500: 
COMP.          WPX ENERGY WILLISTON, LLC: COMPANY
WELL.          OTTER WOMAN 34-27HP: WELL
FLD.                  MANDAREE: FIELD
LOC.           LOT2--249' FNL & 2281' FEL: LOCATION
CNTY.                     DUNN: COUNTY
SRVC.                         : SERVICE COMPANY
DATE.          Fri Jun 15 11-35-34 2018: LOG DATE
UWI.              33-025-03338: UNIQUE WELL ID
STAT.                       ND: STATE
~Curve Information Block
DEPT.FT            0 000 00 00: Depth
LTEN.lb                       : Surface Line Tension
GR.GAPI                       : Gamma Ray
AMP3FT.mV                     : AMP3FT Amplitude
TT3FT.usec                    : 3FT Travel Time
CCL.                          : Casing Collar Locator
AMPMIN.                       : Minimum Sector Amplitude
AMPMAX.                       : Maximum Sector Amplitude
AMPAVG.                       : Average Sector Amplitude
~Parameter Information Block
~A  Depth       LTEN         GR        AMP3FT      TT3FT        CCL        AMPMIN      AMPMAX      AMPAVG   
# ...
  1443.0000    447.6186     71.1076     50.2502    293.1869      0.0000     76.3301     85.8794     80.8535
  1442.5000    469.2753     69.9325     49.8188    293.1904      0.0000     75.0845     85.6482     80.2717
  1442.0000    458.0459     77.2226     49.7975    293.1932      0.0000     74.2661     85.2069     79.7910
  1441.5000    446.0144     70.1414     49.8666    293.2151      0.0000     74.9269     84.9025     79.9004
  1441.0000    446.0144     49.6426     49.5133    293.3382      0.0000     75.0440     83.7070     79.3650
  1440.5000    458.0459     42.9089     46.9371    294.4986      0.0000     74.0709     79.7056     76.9768
  1440.0000    445.2122     48.5809     45.2567    297.8711      0.0000     70.3632     79.3514     73.0825
  1439.5000    459.6501     52.5503     39.6093    302.1129      0.0000     53.2901     63.4757     56.5726
  1439.0000    464.4627     51.3936     32.0259    302.5771      0.0000     43.8436     51.0118     46.6148
  1438.5000    448.4207     48.1707     31.5946    301.9349      2.0000     44.5576     51.2773     47.1882
  1438.0000    451.6291     52.5366     31.8569    301.9780      0.0000     44.8072     51.7071     47.3106
  1437.5000    459.6501     64.0782     36.4184    302.1890      0.0000     48.4217     56.2978     50.9497
  1437.0000    446.0144     80.9784     46.4709    299.7632      0.0000     60.7187     70.8518     64.1284
  1436.5000    457.2438     90.7086     45.7712    296.1725      0.0000     66.3974     75.9003     70.2068
  1436.0000    462.0564     86.4445     47.1592    293.9912      0.0000     72.5308     81.4895     76.0779
  1435.5000    448.4207     77.9554     47.9009    293.4618      0.0000     74.7737     82.5074     77.6066
  1435.0000    448.4207     69.7400     47.9307    293.4306      0.0000     74.1977     80.6724     76.8512
  1434.5000    458.0459     72.3140     47.8165    293.3954      0.0000     74.2828     79.1711     76.2881
  1434.0000    442.0038     77.4845     47.4442    293.3958      0.0000     74.7960     77.8725     75.9725
  1433.5000    450.8270     69.8026     47.4281    293.3959      0.0000     74.7187     77.3084     75.9890
  1433.0000    449.2228     61.9321     47.4047    293.3978      0.0000     73.9954     77.8709     76.2409
  1432.5000    446.8165     63.5029     47.6532    293.3716      0.0000     73.2318     78.8939     76.3690
  1432.0000    447.6186     60.6826     48.1279    293.3620      0.0000     72.7086     80.1127     76.6383
  1431.5000    454.8375     52.8527     48.1581    293.4248      0.0000     72.4649     81.6552     77.1272
  1431.0000    435.5870     53.2378     48.3316    293.4003      0.0000     71.9504     82.7342     77.4699
  1430.5000    460.4522     61.0640     48.3656    293.3738      0.0000     71.0641     83.0959     77.3321
  1430.0000    454.0354     63.5825     48.3581    293.3789      0.0000     70.9401     83.2367     77.2599
  1429.5000    445.2122     62.4910     48.6302    293.4128      0.0000     71.9001     83.5062     77.7001
  1429.0000    450.0249     63.3126     48.8937    293.4294      0.0000     72.5454     83.7889     78.0888
  1428.5000    453.2333     60.8640     49.0232    293.4260      0.0000     73.1216     84.5088     78.5122
  1428.0000    442.0038     58.0642     49.2324    293.3903      0.0000     73.3795     85.0503     78.8898
  1427.5000    457.2438     65.5867     49.2502    293.3465      0.0000     73.3182     84.8334     79.0068
  1427.0000    462.8585     75.5745     49.0585    293.2727      0.0000     73.1842     85.0836     78.9373
  1426.5000    442.8060     76.9132     49.1022    293.2345      0.0000     73.1169     85.5117     78.9949
  1426.0000    445.2122     78.5344     49.4578    293.3470      0.0000     74.3555     85.5600     79.4247
  1425.5000    454.8375     84.1878     49.6897    293.3676      0.0000     74.9042     85.5135     79.7386
  1425.0000    442.0038     83.1982     49.6243    293.3743      0.0000     74.3171     85.3483     79.6097
  1424.5000    454.0354     69.2083     49.5373    293.4142      0.0000     74.5415     85.6525     79.7938
  1424.0000    459.6501     65.2428     49.7002    293.3837      0.0000     74.7181     86.1751     80.0696
  1423.5000    442.0038     76.7546     49.9221    293.3605      0.0000     75.0597     86.1028     80.1870
  1423.0000    440.3997     76.8821     49.8437    293.3927      0.0000     75.4892     85.5707     80.0984
  1422.5000    452.4312     68.5012     49.7102    293.3845      0.0000     75.1849     85.4379     79.8369
  1422.0000    462.0564     67.2656     49.7562    293.3992      0.0000     75.1901     85.8239     79.9914
  1421.5000    460.4522     69.0893     50.0300    293.3559      0.0000     75.6085     85.8627     80.3469
  1421.0000    458.0459     65.4937     50.4441    293.2451      0.0000     75.7986     85.5943     80.4471
  1420.5000    449.2228     62.9351     50.4353    293.3165      0.0000     76.1621     85.6176     80.7581
  1420.0000    443.6081     66.5932     50.4175    293.3915      0.0000     76.4512     85.9195     81.0619
  1419.5000    453.2333     73.8873     50.6878    293.3617      0.0000     76.6775     86.8403     81.4113
  1419.0000    460.4522     71.4971     50.8398    293.3187      0.0000     76.6095     87.7156     81.5770
  1418.5000    462.0564     63.7155     50.9766    293.3027      0.0000     76.5878     88.0127     81.6775
  1418.0000    457.2438     63.6885     50.8267    293.3557      0.0000     76.3216     87.4819     81.4848
  1417.5000    442.0038     71.1218     50.3939    293.3672      0.0000     75.9262     86.5055     80.7868
  1417.0000    445.2122     80.2812     49.8764    293.3702      0.0000     75.5930     85.9560     80.0223
  1416.5000    451.6291     81.6986     49.6924    293.3526      0.0000     75.3237     86.2035     79.6889
  1416.0000    454.0354     71.4899     49.6811    293.3803      0.0000     74.9427     85.7257     79.3566
  1415.5000    458.0459     61.5014     49.5873    293.5056      0.0000     74.2415     84.6942     78.9969
  1415.0000    464.4627     58.1936     49.4441    293.5153      0.0000     73.6110     84.5387     78.8443
  1414.5000    442.0038     61.3515     49.3699    293.4735      0.0000     74.1935     85.0086     79.2556
  1414.0000    441.2018     73.6149     49.6431    293.4243      0.0000     74.9748     85.8200     80.0870
  1413.5000    455.6396     86.7014     50.0537    293.3580      0.0000     75.3346     86.6749     80.6656
  1413.0000    458.0459     93.8409     50.3706    293.3657      0.0000     75.4778     87.2982     80.9796
  1412.5000    447.6186     89.8926     50.7111    293.3241      0.0000     75.6080     87.6363     81.3454
  1412.0000    445.2122     76.2717     51.0394    293.2445      0.0000     76.5644     87.8445     81.9472
  1411.5000    445.2122     66.1226     51.3151    293.2505      0.0000     77.3631     88.2283     82.5232
  1411.0000    447.6186     64.9547     51.2462    293.3085      0.0000     77.2641     88.3105     82.4556
  1410.5000    452.4312     63.3272     51.0904    293.3359      0.0000     76.8220     88.4669     82.2962
  1410.0000    457.2438     59.4324     51.1458    293.3342      0.0000     76.5491     88.2529     82.4886
  1409.5000    456.4417     55.7731     51.4782    293.2982      0.0000     76.8533     87.8534     82.6281
  1409.0000    458.0459     66.8282     51.6850    293.3180      0.0000     77.3842     87.7836     82.6466
  1408.5000    443.6081     85.8775     51.7153    293.2683      0.0000     77.6075     88.2474     82.7221
  1408.0000    441.2018     89.7724     51.5563    293.2629      0.0000     77.6204     88.4204     82.7354
  1407.5000    437.9933     81.8975     51.5837    293.2930      0.0000     77.7808     88.8725     83.1193
  1407.0000    465.2648     69.2040     51.6340    293.2802      0.0000     78.0380     88.6219     83.2759
  1406.5000    463.6606     65.8676     51.3600    293.2505      0.0000     78.0667     87.4427     82.6948
  1406.0000    457.2438     73.8732     51.0991    293.2888      0.0000     77.9309     86.6474     82.2427
