~Version Information
VERS.                      2.0: CWLS Log ASCII Standard - VERSION 2.0
WRAP.                       NO: One line per depth step
~Well Information Block
STRT.FT             10330.5000: 
STOP.FT                16.5000: 
STEP.FT                -0.5000: 
NULL.                -999.2500: 
COMP.          WPX ENERGY WILLISTON, LLC: COMPANY
WELL.          OTTER WOMAN 34-27HP: WELL
FLD.                  MANDAREE: FIELD
LOC.           LOT2--249' FNL & 2281' FEL: LOCATION
CNTY.                     DUNN: COUNTY
SRVC.                         : SERVICE COMPANY
DATE.          Fri Jun 15 11-35-34 2018: LOG DATE
UWI.              33-025-03338: UNIQUE WELL ID
STAT.                       ND: STATE
~Curve Information Block
DEPT.FT            0 000 00 00: Depth
LTEN.lb                       : Surface Line Tension
GR.GAPI                       : Gamma Ray
AMP3FT.mV                     : AMP3FT Amplitude
TT3FT.usec                    : 3FT Travel Time
CCL.                          : Casing Collar Locator
AMPMIN.                       : Minimum Sector Amplitude
AMPMAX.                       : Maximum Sector Amplitude
AMPAVG.                       : Average Sector Amplitude
~Parameter Information Block
~A  Depth       LTEN         GR        AMP3FT      TT3FT        CCL        AMPMIN      AMPMAX      AMPAVG   
# ...
  6918.0000   1502.3835    101.7645     11.9532    337.7809      0.0000     17.1676     19.1314     17.8366
  6917.5000   1487.9457     99.2983     12.7651    337.3976      0.0000     18.6424     20.0341     19.2152
  6917.0000   1501.5814     87.6574     13.6931    337.1860      0.0000     19.9014     21.1248     20.5610
  6916.5000   1501.5814     90.7398     14.4213    337.1628      0.0000     21.3399     22.6894     21.7554
  6916.0000   1491.1542     99.5972     14.7219    336.9752      0.0000     21.6259     24.2530     22.6499
  6915.5000   1487.9457     94.3955     15.1925    336.8700      0.0000     21.7804     26.5044     23.6929
  6915.0000   1486.3416     86.4777     15.9808    336.9278      0.0000     21.7553     28.7711     24.8004
  6914.5000   1495.1647     90.8187     16.8273    336.9327      0.0000     21.8349     31.1296     26.2891
  6914.0000   1505.5920     94.5693     17.8509    336.8716      0.0000     22.2974     34.1923     27.7593
  6913.5000   1505.5920     83.4969     18.4441    336.5687      0.0000     22.0520     35.3435     28.2138
  6913.0000   1486.3416     76.4854     18.7040    336.4674      0.0000     22.8898     35.8506     28.8950
  6912.5000   1492.7583     78.4697     19.7257    336.6044      0.0000     25.4355     37.4134     30.7660
  6912.0000   1491.9562     76.6554     21.2801    336.3858      0.0000     28.8922     39.0810     33.6520
  6911.5000   1485.5394     79.8156     22.7774    330.9666      0.0000     31.8947     39.9036     35.9321
  6911.0000   1513.6130     89.7210     24.2458    313.2374      0.0000     35.3458     41.7593     38.2242
  6910.5000   1516.8214     95.1764     24.4318    305.3510      0.0000     34.9619     42.3730     38.1799
  6910.0000   1491.1542     90.9972     22.5794    316.7607      0.0000     29.8131     39.0603     33.5991
  6909.5000   1486.3416     85.8123     17.3771    333.0240      0.0000     21.3391     29.3216     24.7851
  6909.0000   1481.5289     77.4425     11.9702    342.2859      0.0000     14.9332     19.4993     17.0563
  6908.5000   1490.3521     66.2095     10.9924    342.7110      2.0000     12.9835     18.1151     15.4253
  6908.0000   1503.9878     60.3347     10.1262    342.6592      0.0000     12.0525     17.9653     14.5877
  6907.5000   1505.5920     64.0098     11.8631    343.0849      0.0000     14.1249     21.7557     17.6108
  6907.0000   1486.3416     71.6478     15.5470    341.1814      0.0000     18.9055     29.6599     23.7948
  6906.5000   1492.7583     75.6089     15.6153    337.7329      0.0000     18.0432     31.0747     24.3503
  6906.0000   1495.1647     82.0098     16.8195    336.1133      0.0000     17.9701     35.3108     26.7773
  6905.5000   1491.9562     85.2654     17.8830    335.7875      0.0000     17.3611     39.7470     28.3274
  6905.0000   1504.7899     79.4145     17.8679    336.0085      0.0000     16.1242     41.1499     27.8107
  6904.5000   1508.8004     74.0474     16.8984    336.4274      0.0000     14.8233     40.5029     26.4489
  6904.0000   1494.3625     69.5611     15.5708    337.0542      0.0000     14.1604     38.9185     24.7953
  6903.5000   1484.7373     65.4365     14.4553    337.5583      0.0000     13.7909     37.1053     23.1655
  6903.0000   1487.1437     60.7141     14.1903    337.8049      0.0000     14.1931     35.7262     22.8772
  6902.5000   1498.3730     62.7496     15.1979    338.1749      0.0000     16.5854     35.3923     24.3045
  6902.0000   1509.6025     74.1344     15.7044    338.3519      0.0000     17.0373     35.4292     24.9077
  6901.5000   1509.6025     77.2352     16.0947    338.0606      0.0000     16.3975     36.6763     25.5512
  6901.0000   1495.1647     70.1791     17.2745    337.6323      0.0000     17.1898     39.5986     27.5781
  6900.5000   1496.7688     63.1560     18.1605    337.5211      0.0000     17.9851     41.8544     28.9293
  6900.0000   1486.3416     54.3853     18.4024    337.6857      0.0000     18.6131     42.0797     29.3220
  6899.5000   1488.7478     49.9032     18.7877    338.2207      0.0000     20.1229     41.8623     29.9094
  6899.0000   1513.6130     52.2684     19.1201    338.8147      0.0000     21.1553     42.0345     30.7581
  6898.5000   1505.5920     49.0533     19.6540    338.8932      0.0000     22.0125     43.6837     31.7899
  6898.0000   1491.9562     38.9244     20.6862    339.0360      0.0000     24.1293     44.1089     33.0610
  6897.5000   1491.9562     38.4615     21.3204    339.3105      0.0000     26.6774     44.3804     34.1962
  6897.0000   1503.1857     47.8076     21.8395    339.7945      0.0000     30.3793     43.2655     35.4846
  6896.5000   1503.1857     51.0340     22.3427    340.3154      0.0000     33.9332     41.3303     36.6581
  6896.0000   1505.5920     42.8247     22.7630    340.4867      0.0000     35.9393     39.4585     37.1357
  6895.5000   1510.4045     46.2626     22.8846    340.7038      0.0000     34.8576     39.2701     36.8456
  6895.0000   1495.9668     62.1641     21.8695    340.8578      0.0000     33.5555     37.3691     35.2001
  6894.5000   1499.1752     63.0808     20.4219    340.6424      0.0000     30.3092     35.7556     32.9785
  6894.0000   1477.5184     48.7728     19.7445    340.2847      0.0000     28.2420     36.3553     31.5055
  6893.5000   1490.3521     41.5137     18.4457    339.6657      0.0000     24.7289     35.8904     29.0750
  6893.0000   1505.5920     59.4253     17.0168    338.9704      0.0000     19.9692     33.4482     26.2222
  6892.5000   1504.7899     96.2150     16.2565    338.6524      0.0000     19.1643     30.8987     24.9780
  6892.0000   1493.5604    115.3283     15.3408    338.5934      0.0000     18.7401     28.5240     23.7562
  6891.5000   1499.9773    109.2168     13.8792    338.8120      0.0000     17.2010     25.3746     21.5760
  6891.0000   1499.1752     97.6815     12.2969    339.2781      0.0000     15.6244     22.1780     18.9307
  6890.5000   1510.4045     96.3327     10.6752    339.8500      0.0000     13.4395     18.8876     15.9145
  6890.0000   1495.9668    108.6530      9.1668    340.5247      0.0000     10.6590     15.7245     13.0138
  6889.5000   1494.3625    122.5279      8.0936    340.8970      0.0000      8.5167     14.4546     11.2192
  6889.0000   1489.5499    122.3678      7.8275    341.1172      0.0000      7.8226     14.4300     10.6824
  6888.5000   1483.1331    115.8325      8.2495    341.0394      0.0000      8.5766     14.7008     11.2932
  6888.0000   1483.1331    115.1905      8.9828    340.4392      0.0000     10.1188     15.7289     12.6144
  6887.5000   1495.9668    114.3154      9.2791    340.0815      0.0000     10.8106     16.1384     13.1883
  6887.0000   1507.1962    117.3979      9.0925    340.0900      0.0000     10.2306     15.7663     12.7222
  6886.5000   1505.5920    132.3216      8.8561    340.3125      0.0000      9.6944     15.7653     12.2099
  6886.0000   1482.3311    140.8692      9.0167    340.5078      0.0000     10.1352     16.2189     12.4856
  6885.5000   1491.1542    150.3834      9.4442    341.0028      0.0000     11.0316     16.3897     13.2265
  6885.0000   1487.1437    146.0781      9.3573    341.7689      0.0000     11.9964     15.3772     13.4546
  6884.5000   1485.5394    118.2529      9.4113    342.0982      0.0000     12.6915     14.6348     13.6196
  6884.0000   1509.6025     93.5254      9.6295    342.0177      0.0000     13.1147     14.5483     13.6827
  6883.5000   1500.7794     78.5081      9.5435    342.0302      0.0000     12.3656     14.1090     13.3785
  6883.0000   1489.5499     73.9024      9.2787    342.3309      0.0000     11.1983     14.4825     12.9074
  6882.5000   1493.5604     72.4510      8.2816    343.3112      0.0000      9.7321     13.1258     11.4276
  6882.0000   1479.1226     69.8668      7.4937    344.2426      0.0000      8.6075     11.1387     10.0589
  6881.5000   1489.5499     65.8368      7.2332    344.6114      0.0000      7.9609      9.9980      9.2243
  6881.0000   1490.3521     62.6597      6.7587    347.7782      0.0000      6.7606      9.7307      8.5965
