~Version Information
VERS.                      2.0: CWLS Log ASCII Standard - VERSION 2.0
WRAP.                       NO: One line per depth step
~Well Information Block
STRT.FT             10330.5000: 
STOP.FT                16.5000: 
STEP.FT                -0.5000: 
NULL.                -999.2500: 
COMP.          WPX ENERGY WILLISTON, LLC: COMPANY
WELL.          OTTER WOMAN 34-27HP: WELL
FLD.                  MANDAREE: FIELD
LOC.           LOT2--249' FNL & 2281' FEL: LOCATION
CNTY.                     DUNN: COUNTY
SRVC.                         : SERVICE COMPANY
DATE.          Fri Jun 15 11-35-34 2018: LOG DATE
UWI.              33-025-03338: UNIQUE WELL ID
STAT.                       ND: STATE
~Curve Information Block
DEPT.FT            0 000 00 00: Depth
LTEN.lb                       : Surface Line Tension
GR.GAPI                       : Gamma Ray
AMP3FT.mV                     : AMP3FT Amplitude
TT3FT.usec                    : 3FT Travel Time
CCL.                          : Casing Collar Locator
AMPMIN.                       : Minimum Sector Amplitude
AMPMAX.                       : Maximum Sector Amplitude
AMPAVG.                       : Average Sector Amplitude
~Parameter Information Block
~A  Depth       LTEN         GR        AMP3FT      TT3FT        CCL        AMPMIN      AMPMAX      AMPAVG   
# ...
  6205.5000   1360.4114     87.0495     18.2955    338.2529      0.0000     25.8863     31.3546     28.6478
  6205.0000   1353.9946     90.9906     19.9614    337.5239      0.0000     28.5980     34.3272     31.3462
  6204.5000   1349.9840     92.1893     22.0872    332.1060      0.0000     31.8900     37.7695     34.7148
  6204.0000   1364.4219     91.7748     23.4893    320.0170      0.0000     33.9229     39.4558     36.8830
  6203.5000   1376.4535     89.0314     22.7750    326.1779      0.0000     33.0982     37.5470     35.5929
  6203.0000   1384.4745     88.0820     20.3647    336.4313      0.0000     30.0271     34.0489     32.0962
  6202.5000   1367.6304     90.4136     18.4768    337.5560      0.0000     27.7262     31.3811     29.4445
  6202.0000   1363.6198     94.3036     17.8379    337.2672      0.0000     26.7779     29.5111     28.0177
  6201.5000   1352.3904     99.7939     17.9664    337.1755      0.0000     26.4541     28.9341     27.9327
  6201.0000   1363.6198    102.9406     19.2606    336.7650      0.0000     27.7943     32.0168     30.0609
  6200.5000   1368.4324    107.3659     22.1408    331.4065      0.0000     31.8391     37.7667     34.9103
  6200.0000   1376.4535    124.0307     24.5630    318.3610      0.0000     35.6368     41.7475     38.9435
  6199.5000   1363.6198    133.2188     23.1486    324.2931      0.0000     32.8998     39.7906     36.6344
  6199.0000   1372.4430    121.6942     19.6236    335.3504      0.0000     27.2415     33.5961     30.4089
  6198.5000   1353.1925    112.7232     16.1817    337.6385      0.0000     21.9566     26.9498     24.4757
  6198.0000   1366.8282    117.8002     13.6248    338.0923      0.0000     18.0064     22.2776     20.1090
  6197.5000   1373.2450    129.1552     11.8968    338.0569      0.0000     15.2483     19.2022     17.1569
  6197.0000   1370.0366    140.7112     11.0370    337.6975      0.0000     14.1775     18.1639     16.0356
  6196.5000   1358.0051    135.4124     11.0832    338.2418      0.0000     14.4383     18.5189     16.3301
  6196.0000   1360.4114    115.3308     13.3973    341.0507      0.0000     17.0211     22.1131     19.6891
  6195.5000   1344.3694    108.8115     13.3965    344.8064      0.0000     16.8825     21.2452     19.1681
  6195.0000   1364.4219    114.3514      9.2761    344.8202      0.0000     11.5972     15.2646     13.2728
  6194.5000   1370.0366    120.4602      8.1974    344.2448      0.0000      9.8503     14.0048     11.6589
  6194.0000   1378.8597    116.0302      7.9705    345.6465      0.0000      8.9800     13.0293     10.7139
  6193.5000   1354.7966    108.5205      8.4671    351.7826      0.0000      9.8964     11.6751     10.6231
  6193.0000   1364.4219    112.4214     10.1256    364.5874      0.0000     12.1662     14.2411     13.1199
  6192.5000   1355.5988    119.9626      9.8840    358.6970      0.0000     13.5982     15.2721     14.1891
  6192.0000   1362.0156    118.3700     10.7398    340.8952      0.0000     14.9552     16.7239     15.8273
  6191.5000   1372.4430    113.5790     11.5435    336.4583      0.0000     16.1433     17.3636     16.7846
  6191.0000   1368.4324    112.8053     11.4107    336.5658      0.0000     16.2956     17.1025     16.7270
  6190.5000   1346.7756    110.8555     11.5593    337.2359      0.0000     16.2705     17.5390     17.1719
  6190.0000   1363.6198    102.4886     12.1994    337.5031      0.0000     17.0808     19.0451     18.3161
  6189.5000   1350.7861     90.8036     13.1175    337.3507      0.0000     19.0520     21.1298     20.1138
  6189.0000   1361.2135     79.9501     14.1077    336.4642      0.0000     20.0261     22.8302     21.3033
  6188.5000   1376.4535     83.4067     13.9170    335.7077      0.0000     19.2242     22.9460     20.8981
  6188.0000   1380.4640    106.1772     13.6298    335.7849      0.0000     18.9094     23.0858     20.8579
  6187.5000   1349.9840    135.5705     13.7158    336.0181      0.0000     18.7823     23.9679     21.0213
  6187.0000   1366.0261    163.9762     14.1771    335.7650      0.0000     19.4446     25.1823     21.7169
  6186.5000   1353.1925    174.0616     14.8447    334.9751      0.0000     20.6387     25.8322     23.0433
  6186.0000   1362.0156    152.3028     15.7479    334.5552      0.0000     21.4752     27.2355     24.4560
  6185.5000   1374.8492    122.5205     16.0798    334.9597      0.0000     21.5978     27.5186     24.7149
  6185.0000   1381.2661    102.7117     16.0831    336.1633      0.0000     22.4039     26.4218     24.4845
  6184.5000   1355.5988     90.3765     16.5516    336.9082      0.0000     23.6161     27.0935     24.9730
  6184.0000   1364.4219     82.6485     17.3085    336.6166      0.0000     24.0985     29.1324     26.2929
  6183.5000   1351.5883     77.6896     19.0578    335.9455      0.0000     26.8451     32.8974     29.7922
  6183.0000   1358.8073     76.9784     22.0392    330.4629      0.0000     32.3711     38.9158     35.4089
  6182.5000   1370.8387     87.3283     26.0107    312.0604      0.0000     38.9382     45.8185     42.1500
  6182.0000   1364.4219     92.5396     29.3904    298.9546      0.0000     43.1172     51.9801     47.3557
  6181.5000   1355.5988     92.3025     31.5742    296.6483      0.0000     45.7959     55.4989     50.4393
  6181.0000   1355.5988     91.6834     29.3997    302.5260      0.0000     44.4042     49.9707     46.9148
  6180.5000   1351.5883     83.2873     23.0212    321.7589      0.0000     34.1451     38.6319     36.3699
  6180.0000   1351.5883     79.0290     17.0505    334.9669      0.0000     24.2579     28.5612     26.4018
  6179.5000   1372.4430     95.3726     13.0197    337.7650      0.0000     17.5601     21.3776     19.2835
  6179.0000   1358.0051    114.7902     10.0955    338.8439      0.0000     12.1661     15.9127     14.0499
  6178.5000   1347.5778    115.2064      8.5636    339.7636      0.0000      9.8445     13.0914     11.6933
  6178.0000   1355.5988    111.6907      8.7852    338.9894      0.0000     11.3714     13.1885     12.3442
  6177.5000   1346.7756    119.6635      9.1971    338.2108      0.0000     12.5699     13.7847     13.3057
  6177.0000   1368.4324    125.7350      9.8911    338.2224      0.0000     13.1321     15.3194     14.3224
  6176.5000   1369.2345    127.7843     11.1802    337.7156      0.0000     14.8042     18.0153     16.3699
  6176.0000   1374.0471    119.8177     13.1389    337.3355      0.0000     16.8881     22.3304     19.6858
  6175.5000   1349.1820    113.6078     14.9195    336.9374      0.0000     19.2411     26.6102     22.8710
  6175.0000   1362.0156    118.9960     16.3221    336.6778      0.0000     21.6523     29.2023     25.2495
  6174.5000   1343.5673    112.4224     17.0144    336.9676      0.0000     23.0358     30.0185     26.3872
  6174.0000   1352.3904     86.3519     17.6845    336.8067      0.0000     24.2539     31.3395     27.4937
  6173.5000   1370.0366     68.1548     19.5649    336.7545      0.0000     27.3255     34.9014     30.6964
  6173.0000   1361.2135     62.3886     20.9956    337.0917      0.0000     30.0914     36.7445     33.1918
  6172.5000   1349.9840     70.3410     21.1032    337.4885      0.0000     31.0627     35.8559     33.4799
  6172.0000   1356.4009     81.4867     20.8091    337.6622      0.0000     31.0339     34.4152     32.9347
  6171.5000   1348.3799     84.6369     20.5296    337.4216      0.0000     30.3414     34.7717     32.6385
  6171.0000   1366.8282     93.0114     19.8443    337.1798      0.0000     28.0687     35.0713     31.4193
  6170.5000   1362.8177     98.5910     18.2647    336.8855      0.0000     24.3693     33.1841     28.4439
  6170.0000   1366.8282     96.8468     16.0798    336.7915      0.0000     20.9142     28.9864     24.8069
  6169.5000   1352.3904    102.9073     13.8654    336.9227      0.0000     17.9232     24.1291     21.0068
  6169.0000   1370.8387    116.7265     11.4598    337.3847      0.0000     14.8463     19.0126     16.8918
  6168.5000   1342.7651    136.4220      9.9001    338.3383      0.0000     13.0923     15.7623     14.2829
