~Version Information
VERS.                      2.0: CWLS Log ASCII Standard - VERSION 2.0
WRAP.                       NO: One line per depth step
~Well Information Block
STRT.FT                17.0000: 
STOP.FT             10431.5000: 
STEP.FT                 0.5000: 
NULL.                -999.2500: 
COMP.          WPX ENERGY WILLISTON, LLC: COMPANY
WELL.          OTTER WOMAN 34-27HG: WELL
FLD.                  MANDAREE: FIELD
LOC.           LOT2--247' FNL & 2311' FEL: LOCATION
CNTY.                     DUNN: COUNTY
SRVC.                         : SERVICE COMPANY
DATE.          Fri Jun 15 18-22-46 2018: LOG DATE
UWI.              33-025-03337: UNIQUE WELL ID
STAT.                N. DAKOTA: STATE
~Curve Information Block
DEPT.FT            0 000 00 00: Depth
LTEN.lb                       : Surface Line Tension
GR.GAPI                       : Gamma Ray
AMP3FT.mV                     : AMP3FT Amplitude
TT3FT.usec                    : 3FT Travel Time
AMPMIN.                       : Minimum Sector Amplitude
AMPMAX.                       : Maximum Sector Amplitude
AMPAVG.                       : Average Sector Amplitude
CCL.                          : Casing Collar Locator
~Parameter Information Block
~A  Depth       LTEN         GR        AMP3FT      TT3FT       AMPMIN      AMPMAX      AMPAVG       CCL     
# ...
  4854.5000   1089.6748    141.6149     32.8903    289.6463     45.8320     60.1089     52.7029      0.0000
  4855.0000   1077.8040    145.8947     31.1536    290.0999     44.8186     59.7755     51.3172      0.0000
  4855.5000   1080.1782    142.3011     31.0375    290.0439     45.5644     59.3248     50.8866      0.0000
  4856.0000   1071.4729    154.3648     31.0607    289.8665     46.0908     55.9503     50.5732      0.0000
  4856.5000   1083.3438    180.3634     32.0153    289.3410     46.4711     56.0277     51.9546      0.0000
  4857.0000   1098.3800    203.4608     34.7915    288.3806     50.8165     61.3679     56.2275      0.0000
  4857.5000   1096.7972    206.8709     37.5937    289.6131     56.4451     67.7100     61.1724      0.0000
  4858.0000   1063.5591    192.2719     39.3610    290.0098     58.1497     71.2004     63.7107      0.0000
  4858.5000   1080.1782    189.3657     40.3455    289.6912     57.7260     69.7497     63.8980      0.0000
  4859.0000   1071.4729    194.6734     40.6879    289.5923     57.5730     69.2678     63.8679      0.0000
  4859.5000   1073.0557    202.6457     41.0228    289.3083     57.4415     72.9637     64.9164      0.0000
  4860.0000   1094.4231    205.2761     41.3649    289.0661     57.1585     74.0982     65.7917      0.0000
  4860.5000   1090.4662    200.1135     41.4905    289.1690     57.0322     72.0857     65.7365      0.0000
  4861.0000   1069.8901    187.3635     41.1733    289.3132     55.9389     72.0490     64.8290      0.0000
  4861.5000   1076.2212    174.9994     41.2312    289.4222     57.4303     74.1897     65.6722      0.0000
  4862.0000   1063.5591    165.9059     41.2736    289.6601     59.0870     73.8655     66.4925      0.0000
  4862.5000   1084.9265    156.9531     40.5975    289.3294     59.9484     73.1534     65.7141      0.0000
  4863.0000   1090.4662    153.0685     39.8785    288.8736     60.1894     71.5537     65.2140      0.0000
  4863.5000   1088.8834    155.2565     40.1186    289.1785     59.6030     73.2994     65.2101      0.0000
  4864.0000   1065.9332    155.3291     40.5674    289.3214     59.9663     73.1272     65.7049      0.0000
  4864.5000   1080.1782    149.2811     41.5211    289.1779     60.9240     73.3593     66.4243      0.0000
  4865.0000   1061.1849    152.9019     42.4543    289.0985     59.7061     74.3730     66.7960      0.0000
  4865.5000   1069.8901    174.5782     42.7217    289.3192     60.9148     74.2585     67.0962      0.0000
  4866.0000   1091.2576    193.8647     44.7581    289.2408     60.7835     74.0003     66.4802      0.0000
  4866.5000   1073.8470    186.8577     42.8644    289.3242     60.0748     74.3261     66.7584      0.0000
  4867.0000   1071.4729    163.5177     41.0816    289.3020     60.1605     74.7586     67.2382      0.0000
  4867.5000   1080.1782    156.1394     41.4591    289.2665     59.5806     74.4001     67.2144      0.0000
  4868.0000   1067.5160    158.7823     41.7854    289.3100     59.3798     73.6182     67.2148      0.0000
  4868.5000   1085.7179    151.7363     40.6572    289.2242     59.5960     73.9533     66.6976      0.0000
  4869.0000   1086.5093    155.1976     40.0639    289.3782     57.7899     73.5086     65.6469      0.0000
  4869.5000   1092.0490    169.0623     39.0160    289.7340     55.3886     73.2823     63.9425      0.0000
  4870.0000   1062.7677    175.0183     37.0071    289.8035     52.7093     68.3094     60.7301      0.0000
  4870.5000   1083.3438    177.9382     35.2745    289.4464     48.7347     63.1575     56.0140      0.0000
  4871.0000   1070.6815    185.5768     32.2377    289.7210     44.9702     57.8903     50.9218      0.0000
  4871.5000   1077.0126    175.1409     29.9071    290.3198     43.7380     54.8970     48.6639      0.0000
  4872.0000   1096.7972    162.7300     28.8837    290.3593     43.3623     52.9617     48.0533      0.0000
  4872.5000   1079.3867    177.6164     29.5971    290.0837     41.0158     52.1677     47.7996      0.0000
  4873.0000   1072.2643    194.2867     31.5019    290.1440     40.4127     54.1378     48.0970      0.0000
  4873.5000   1077.8040    191.6068     33.8355    290.0634     46.8332     55.3977     51.2676      0.0000
  4874.0000   1058.8108    186.1893     35.2073    289.7742     49.9344     60.8310     55.6470      0.0000
  4874.5000   1080.9696    184.8665     35.3786    289.6497     51.4219     63.8383     57.3252      0.0000
  4875.0000   1090.4662    194.5838     35.6859    289.6620     53.0134     65.4487     58.4257      0.0000
  4875.5000   1099.1714    198.9845     37.4700    289.2101     52.8823     65.9366     59.3891      0.0000
  4876.0000   1069.8901    186.3192     39.4990    288.4179     54.2721     66.2022     60.6484      0.0000
  4876.5000   1090.4662    180.2695     39.5104    288.9440     56.1929     68.0218     62.0818      0.0000
  4877.0000   1065.1418    184.2738     40.0960    289.1248     57.3010     69.7299     63.8888      0.0000
  4877.5000   1088.0920    190.5735     40.9467    288.8692     59.9466     71.5549     65.7938      0.0000
  4878.0000   1099.1714    184.9768     41.0826    289.1227     60.1577     73.1659     66.4808      0.0000
  4878.5000   1082.5524    176.9617     40.8878    289.5383     58.4589     73.9907     65.8239      0.0000
  4879.0000   1073.8470    177.2665     40.8255    289.6104     59.0690     74.5699     66.3557      0.0000
  4879.5000   1087.3007    169.2594     41.2876    289.2806     59.1076     74.9398     66.7004      0.0000
  4880.0000   1071.4729    150.2916     41.0263    289.0570     58.8768     74.0874     66.0472      0.0000
  4880.5000   1092.8403    147.8573     41.5049    289.0842     58.6980     74.8577     65.8840      0.0000
  4881.0000   1099.1714    172.9507     41.2974    289.1871     57.9302     73.9973     65.4959      0.0000
  4881.5000   1089.6748    189.7881     40.9658    289.3076     58.4398     71.5418     65.1294      0.0000
  4882.0000   1061.9763    190.8560     41.0374    289.3454     60.0171     73.4138     66.4565      0.0000
  4882.5000   1081.7610    195.3599     41.7608    289.4515     60.5417     75.9986     67.7710      0.0000
  4883.0000   1080.9696    203.0205     42.2221    289.5256     60.0507     75.8511     67.8160      0.0000
  4883.5000   1098.3800    208.3252     41.9712    289.3560     59.3118     75.7225     66.9569      0.0000
  4884.0000   1108.6680    206.1601     40.9327    289.2709     57.0318     74.6764     64.9290      0.0000
  4884.5000   1080.9696    201.0755     40.1147    289.2598     54.2991     72.1594     62.5794      0.0000
  4885.0000   1069.0988    204.1360     37.4676    289.5610     50.0225     68.6104     59.0980      0.0000
  4885.5000   1079.3867    195.9694     33.9985    289.3905     46.6295     64.7437     55.3820      0.0000
  4886.0000   1079.3867    193.5782     32.7250    289.2232     44.7658     62.4962     53.4577      0.0000
  4886.5000   1083.3438    197.7707     32.2917    289.3484     43.6913     60.6258     52.5104      0.0000
  4887.0000   1098.3800    199.9872     32.2708    289.6345     42.3868     58.6419     50.7727      0.0000
  4887.5000   1098.3800    216.8739     32.1165    289.9079     42.3544     56.6194     49.7152      0.0000
  4888.0000   1073.8470    223.0157     30.3125    293.2577     41.1934     54.6975     47.8451      0.0000
  4888.5000   1077.0126    203.2845     28.9288    298.7364     40.2637     52.1993     46.2622      0.0000
  4889.0000   1079.3867    186.2691     22.4766    299.2708     30.8426     39.9545     35.0636      0.0000
  4889.5000   1088.8834    195.1917     20.9463    297.1318     29.0494     38.5036     32.8383      0.0000
  4890.0000   1092.0490    209.7394     21.1894    298.2767     29.7338     39.8189     34.9032      0.0000
  4890.5000   1077.0126    198.8928     23.2133    299.6089     31.4555     42.8660     36.9389      0.0000
  4891.0000   1073.0557    185.2211     31.8537    298.0515     44.3434     58.0929     51.3228      0.0000
  4891.5000   1098.3800    183.3370     34.2408    292.6799     48.5096     63.4645     55.5542      0.0000
