~Version Information
VERS.                      2.0: CWLS Log ASCII Standard - VERSION 2.0
WRAP.                       NO: One line per depth step
~Well Information Block
STRT.FT                17.0000: 
STOP.FT             10431.5000: 
STEP.FT                 0.5000: 
NULL.                -999.2500: 
COMP.          WPX ENERGY WILLISTON, LLC: COMPANY
WELL.          OTTER WOMAN 34-27HG: WELL
FLD.                  MANDAREE: FIELD
LOC.           LOT2--247' FNL & 2311' FEL: LOCATION
CNTY.                     DUNN: COUNTY
SRVC.                         : SERVICE COMPANY
DATE.          Fri Jun 15 18-22-46 2018: LOG DATE
UWI.              33-025-03337: UNIQUE WELL ID
STAT.                N. DAKOTA: STATE
~Curve Information Block
DEPT.FT            0 000 00 00: Depth
LTEN.lb                       : Surface Line Tension
GR.GAPI                       : Gamma Ray
AMP3FT.mV                     : AMP3FT Amplitude
TT3FT.usec                    : 3FT Travel Time
AMPMIN.                       : Minimum Sector Amplitude
AMPMAX.                       : Maximum Sector Amplitude
AMPAVG.                       : Average Sector Amplitude
CCL.                          : Casing Collar Locator
~Parameter Information Block
~A  Depth       LTEN         GR        AMP3FT      TT3FT       AMPMIN      AMPMAX      AMPAVG       CCL     
    17.0000   -999.2500    109.2160      3.2274    472.0000      0.5156      2.4734      1.4905      0.0000
    17.5000   -999.2500    100.7406      2.7501    472.0000      0.5828      2.8019      1.5492      0.0000
    18.0000    250.0154     89.9211      2.3829    472.0000      0.1731      1.3372      0.8251      0.0000
    18.5000    275.3397     87.1771      3.2843    472.0000     -0.1540      3.2073      1.4938      0.0000
    19.0000    260.3034     79.4022      3.1577    472.0000      0.1448      4.4934      2.3274      0.0000
    19.5000    219.9428     55.0369      2.1911    472.0000      0.4578      2.9747      1.5728      2.0000
    20.0000    246.8499     26.1200      1.8801    472.0000     -0.0424      1.4190      0.7640      0.0000
    20.5000    217.5686     10.2249      1.9957    472.0000     -0.3421      1.0386      0.5617      0.0000
    21.0000    226.2739      5.9782      2.0199    472.0000      0.2413      1.3388      0.9429     -2.0000
    21.5000    235.7705      8.9123      1.9893    472.0000      1.1113      2.2054      1.5697      2.0000
    22.0000    245.2671     14.8878      2.1600    472.0000      0.7731      2.7333      1.7277      2.0000
    22.5000    235.7705     19.1150      2.1850    472.0000     -0.2099      2.3361      1.2768      0.0000
    23.0000    252.3896     21.0243      2.3069    472.0000     -0.6504      1.4248      0.6985      0.0000
    23.5000    234.1877     23.3994      2.7692    472.0000     -0.6640      1.8679      0.9320      0.0000
    24.0000    237.3533     27.8196      2.4664    472.0000     -0.4901      1.9097      1.0950      0.0000
    24.5000    272.1742     35.5337      1.8956    472.0000      0.0617      1.8636      0.9579      0.0000
    25.0000    284.0450     42.0467      2.0983    472.0000      0.2210      2.2484      1.1909      0.0000
    25.5000    260.3034     39.7455      2.5427    472.0000      0.4322      2.0981      1.5027      0.0000
    26.0000    271.3828     35.5574      2.7955    472.0000      0.3723      3.0574      1.8609      0.0000
    26.5000    251.5982     32.1516      2.6256    472.0000     -0.5694      3.5662      1.6997      0.0000
    27.0000    272.9656     30.7718      2.3756    472.0000     -0.1523      3.5126      1.6774     -2.0000
    27.5000    284.0450     32.0152      2.1703    471.7939      0.2129      3.2734      1.9775      0.0000
    28.0000    295.9157     29.2880      1.7508    464.7831      0.4246      3.4669      1.8565      0.0000
    28.5000    242.1016     25.7925      1.1677    429.3000      0.3750      5.8744      3.5131      0.0000
    29.0000    284.8364     29.4350      1.5446    429.3000      0.5185      6.0557      3.3435      0.0000
    29.5000    272.1742     39.0821      2.4069    464.7831      1.0871      2.9432      2.0547      0.0000
    30.0000    274.5483     44.7196      2.3683    471.7939      1.8172      4.4646      3.2710      0.0000
    30.5000    264.2603     43.0688      2.9082    472.0000      2.1233      7.6055      4.1769      0.0000
    31.0000    253.1810     38.0102      5.0733    472.0000      1.3580      7.4439      3.3034      0.0000
    31.5000    234.1877     34.3025      4.6053    472.0000      1.1589      4.1779      2.4015      0.0000
    32.0000    246.0585     32.3749      3.2261    471.9939      0.8599      3.5574      2.1557      0.0000
    32.5000    242.1016     33.8556      4.0383    471.4815      0.8500      4.0259      2.2512      0.0000
    33.0000    241.3102     34.6496      4.3120    464.5380      0.5960      5.4146      2.1971      0.0000
    33.5000    260.3034     31.5358      4.9538    453.8493      0.9881      5.0811      3.0772      0.0000
    34.0000    291.1674     28.5059      5.8156    464.5380      2.9745      6.2148      5.0162      0.0000
    34.5000    269.8000     26.5336      4.2959    471.4815      2.6435      5.3200      3.8907      0.0000
    35.0000    295.9157     29.5032      2.9725    471.9939      1.1763      5.1815      3.1311      0.0000
    35.5000    250.8068     39.1521      3.2925    472.0000      1.7741      4.9776      3.1235      0.0000
    36.0000    263.4690     51.8710      3.3539    472.0000      1.0138      3.8341      2.2786      0.0000
    36.5000    277.7139     52.9063      2.8791    472.0000      0.5850      2.9518      1.5417      0.0000
    37.0000    278.5053     47.0112      2.7722    472.0000      0.9507      3.6416      1.7194      0.0000
    37.5000    263.4690     47.5331      2.7668    472.0000      0.1482      4.4158      1.8166      0.0000
    38.0000    280.0880     46.8711      2.0370    472.0000     -0.5721      4.1613      1.8810      0.0000
    38.5000    249.2240     38.2688      2.2881    471.9023      0.3283      3.3182      2.1537      0.0000
    39.0000    287.2105     28.4855      2.8888    468.5810      1.4187      4.1845      2.7761      0.0000
    39.5000    291.9588     27.7316      3.6694    451.7708      1.9321      6.2826      3.8574      0.0000
    40.0000    276.1311     29.8335      5.5119    451.7708      1.7003      5.6700      3.3694      0.0000
    40.5000    267.4259     29.9898      5.7175    468.5810      0.1059      4.9687      2.9571      0.0000
    41.0000    274.5483     30.3524      3.5935    471.9023      0.1995      3.5776      1.7217      0.0000
    41.5000    261.0948     33.1375      1.9922    472.0000     -0.1547      2.2906      1.2011      0.0000
    42.0000    281.6708     34.0748      1.9874    472.0000      0.5986      4.0528      2.0654      0.0000
    42.5000    288.7933     34.7463      2.6982    472.0000      1.2472      3.8931      2.5981      0.0000
    43.0000    266.6345     36.6590      2.8263    472.0000      2.0488      5.0556      3.4689      0.0000
    43.5000    269.8000     37.5956      2.6610    472.0000      3.1363      6.7726      5.2011      0.0000
    44.0000    276.1311     35.5132      2.4169    472.0000      1.9889      6.5677      4.3531      0.0000
    44.5000    263.4690     35.1406      2.1125    472.0000      1.0380      4.1125      2.5576      0.0000
    45.0000    286.4191     44.7156      1.7805    472.0000      0.3497      4.0729      1.8101      0.0000
    45.5000    297.4985     54.9422      1.7260    472.0000     -0.3985      2.3773      1.2174      0.0000
    46.0000    265.8431     54.8456      2.0773    472.0000      1.4419      4.1120      2.2929      0.0000
    46.5000    283.2536     43.5552      2.4540    472.0000      1.6672      7.3963      4.4994      0.0000
    47.0000    266.6345     31.6885      2.3264    472.0000      1.8438      5.5979      3.4803     -2.0000
    47.5000    270.5914     25.1225      3.1709    472.0000      1.3296      5.4441      2.8201      0.0000
    48.0000    284.8364     24.0800      3.7070    472.0000      0.8624      3.3095      1.9222      0.0000
    48.5000    284.0450     30.3244      4.5563    472.0000     -0.3215      3.4346      1.6443      0.0000
    49.0000    285.6277     40.7138      3.3997    472.0000     -0.1114      4.2548      1.9197      0.0000
    49.5000    286.4191     52.4755      2.2818    472.0000      1.1188      2.8728      1.7454      0.0000
    50.0000    263.4690     58.6705      3.3158    472.0000      1.5689      4.6145      2.7579      0.0000
    50.5000    262.6776     56.4063      3.4183    472.0000      1.8109      6.6206      3.3053      0.0000
    51.0000    291.9588     45.3262      3.9058    472.0000      0.2911      6.3398      2.9071      0.0000
    51.5000    264.2603     33.9905      3.9749    472.0000     -0.1259      5.9222      3.3881      0.0000
    52.0000    260.3034     34.4119      2.6871    472.0000      0.0578      4.1842      2.7751      0.0000
    52.5000    264.2603     43.5604      2.5677    472.0000      0.2888      2.6902      1.6695      0.0000
    53.0000    280.0880     51.0854      3.9444    472.0000      0.5846      3.3926      2.0890      0.0000
    53.5000    267.4259     44.1386      3.6126    472.0000      2.3904      5.1262      3.4925      0.0000
    54.0000    283.2536     30.1597      3.0552    472.0000      2.6008      7.9308      4.6759      0.0000
