~Version Information
VERS.                      2.0: CWLS Log ASCII Standard - VERSION 2.0
WRAP.                       NO: One line per depth step
~Well Information Block
STRT.FT             10330.5000: 
STOP.FT                16.5000: 
STEP.FT                -0.5000: 
NULL.                -999.2500: 
COMP.          WPX ENERGY WILLISTON, LLC: COMPANY
WELL.          OTTER WOMAN 34-27HP: WELL
FLD.                  MANDAREE: FIELD
LOC.           LOT2--249' FNL & 2281' FEL: LOCATION
CNTY.                     DUNN: COUNTY
SRVC.                         : SERVICE COMPANY
DATE.          Fri Jun 15 11-35-34 2018: LOG DATE
UWI.              33-025-03338: UNIQUE WELL ID
STAT.                       ND: STATE
~Curve Information Block
DEPT.FT            0 000 00 00: Depth
LTEN.lb                       : Surface Line Tension
GR.GAPI                       : Gamma Ray
AMP3FT.mV                     : AMP3FT Amplitude
TT3FT.usec                    : 3FT Travel Time
CCL.                          : Casing Collar Locator
AMPMIN.                       : Minimum Sector Amplitude
AMPMAX.                       : Maximum Sector Amplitude
AMPAVG.                       : Average Sector Amplitude
~Parameter Information Block
~A  Depth       LTEN         GR        AMP3FT      TT3FT        CCL        AMPMIN      AMPMAX      AMPAVG   
# ...
  2118.0000    575.9550     72.2461     35.2100    294.7512      0.0000     52.4217     60.3462     56.1829
  2117.5000    587.1844     74.1557     34.9155    294.7584      0.0000     51.8749     59.5919     55.5991
  2117.0000    588.7886     74.3960     35.0070    294.7442      0.0000     52.0254     59.4091     55.6320
  2116.5000    588.7886     65.9943     35.6383    294.6912      0.0000     53.1844     60.3036     56.4966
  2116.0000    567.9340     68.8913     36.0819    295.0362      0.0000     53.1637     60.9156     56.7692
  2115.5000    577.5592     80.6792     33.5839    300.4295      0.0000     48.8025     57.2002     52.7630
  2115.0000    568.7361     82.8351     32.6996    310.8531      0.0000     44.6798     54.3940     48.5222
  2114.5000    579.1634     80.3243     30.0524    316.0587      0.0000     38.7305     49.2352     42.4905
  2114.0000    586.3823     80.9570     24.3932    319.4104      0.0000     32.9753     41.4652     36.3244
  2113.5000    589.5908     76.4668     23.4391    331.0112      0.0000     32.7651     40.7545     36.2967
  2113.0000    581.5697     60.5089     23.2160    341.5433      0.0000     31.5981     39.7389     35.5827
  2112.5000    582.3718     50.6188     25.6682    336.8412      0.0000     31.5148     42.3017     37.1442
  2112.0000    574.3508     56.3848     36.6142    315.9280      0.0000     45.3663     58.5840     51.6107
  2111.5000    579.1634     71.1633     38.8283    299.5863      0.0000     54.0361     64.4563     58.9387
  2111.0000    594.4034     86.2928     37.4251    295.0984      0.0000     54.7818     64.2840     59.5883
  2110.5000    584.7781     94.6656     37.6669    294.4002      0.0000     55.7078     64.5656     60.3228
  2110.0000    571.9445     86.5056     38.1867    294.2751      0.0000     57.0085     65.1871     61.1397
  2109.5000    592.7991     69.0460     38.9386    294.1602      0.0000     58.4195     66.1728     62.3950
  2109.0000    574.3508     60.3815     39.8171    294.0032      0.0000     60.1621     67.4124     63.9768
  2108.5000    575.9550     73.2777     40.9912    293.7760      0.0000     62.0627     68.8285     65.6781
  2108.0000    590.3928     91.4894     42.1927    293.6399      0.0000     64.2176     69.9192     67.2839
  2107.5000    579.9655     93.7732     42.8337    293.5943      0.0000     65.8953     71.2150     68.5586
  2107.0000    571.1424     80.6625     43.3181    293.5422      0.0000     66.9089     72.0237     69.5767
  2106.5000    583.1740     66.8596     43.7560    293.5605      0.0000     67.7870     73.0205     70.5299
  2106.0000    579.9655     68.2453     44.3897    293.5088      0.0000     68.6355     73.1381     71.1296
  2105.5000    575.1529     75.1269     44.8798    293.3405      0.0000     69.3731     73.5636     71.5694
  2105.0000    585.5802     81.2604     44.9347    293.2615      0.0000     69.8139     73.5626     71.7112
  2104.5000    583.1740     82.7959     44.3942    293.3909      0.0000     69.3794     73.1188     71.3122
  2104.0000    567.1319     78.8119     43.9926    293.4567      0.0000     68.1262     72.9131     70.4961
  2103.5000    582.3718     80.6576     43.5082    293.5331      0.0000     66.7487     71.9707     69.6520
  2103.0000    580.7676     87.7935     43.2655    293.5898      0.0000     65.8319     72.1777     69.0036
  2102.5000    570.3403     93.0291     43.2376    293.5345      0.0000     65.6436     72.2736     68.6427
  2102.0000    588.7886     95.9710     43.1134    293.4781      0.0000     66.1971     72.3296     68.9037
  2101.5000    582.3718    101.8601     43.5494    293.4358      0.0000     67.4498     72.6217     69.8682
  2101.0000    572.7466    102.9163     44.3053    293.4316      0.0000     68.7163     73.4176     71.2507
  2100.5000    568.7361     89.8736     45.1096    293.4139      0.0000     70.0475     74.4300     72.7039
  2100.0000    576.7571     78.6754     45.9170    293.3251      0.0000     71.1069     75.6039     73.7172
  2099.5000    596.8097     73.9842     46.4532    293.2362      0.0000     71.8615     76.5073     74.4839
  2099.0000    590.3928     67.8862     46.8012    293.2739      0.0000     72.4983     77.0279     75.1804
  2098.5000    574.3508     67.5652     47.2706    293.2953      0.0000     73.0942     77.4060     75.8748
  2098.0000    559.9130     77.5983     47.5060    293.2655      0.0000     73.5523     77.7076     76.2475
  2097.5000    569.5381     88.4527     47.6844    293.2859      0.0000     73.9404     78.4234     76.5454
  2097.0000    575.1529     93.0037     47.8334    293.2628      0.0000     74.0889     78.8034     76.7964
  2096.5000    583.9760     89.6704     48.0575    293.1732      0.0000     74.2565     79.2921     77.0235
  2096.0000    583.1740     88.0504     48.1674    293.1546      0.0000     74.8505     79.7048     77.3540
  2095.5000    583.9760     86.1311     48.0454    293.2199      0.0000     74.9018     79.3024     77.2161
  2095.0000    571.1424     81.9125     47.6724    293.2689      0.0000     74.3126     78.6659     76.6319
  2094.5000    573.5487     87.0036     47.3217    293.2682      0.0000     73.9034     78.2590     76.1366
  2094.0000    573.5487     97.7441     47.1425    293.2423      0.0000     73.8660     78.1184     75.8794
  2093.5000    581.5697     96.3847     47.0209    293.2461      0.0000     73.5977     77.5741     75.5235
  2093.0000    585.5802     84.3488     47.0082    293.2466      0.0000     72.9384     76.8981     75.1791
  2092.5000    581.5697     83.9248     46.8540    293.2375      0.0000     72.2831     76.2839     74.8948
  2092.0000    571.1424     86.4523     46.7298    293.2664      0.0000     72.0954     76.2738     74.8185
  2091.5000    571.1424     88.0298     46.7895    293.2698      0.0000     72.3941     76.7813     74.9318
  2091.0000    563.9235    103.8362     46.7217    293.2394      0.0000     72.3662     76.5525     74.8128
  2090.5000    581.5697    116.0685     46.4765    293.2633      0.0000     72.0788     75.8396     74.4202
  2090.0000    575.9550    105.6638     46.0787    293.3419      0.0000     71.9218     75.1892     73.9017
  2089.5000    580.7676     88.8865     45.6678    293.3975      0.0000     71.1194     74.8562     73.4401
  2089.0000    563.1213     82.9241     45.5325    293.3684      0.0000     71.0822     74.8806     73.3397
  2088.5000    574.3508     81.7457     45.7164    293.2971      0.0000     71.6206     75.2903     73.4988
  2088.0000    559.9130     79.2708     45.8832    293.2560      0.0000     71.8778     75.7611     73.5897
  2087.5000    574.3508     80.1673     46.0956    293.2409      0.0000     72.1623     75.7627     73.7803
  2087.0000    574.3508     80.7651     46.4802    293.2461      0.0000     72.6592     75.7302     74.1519
  2086.5000    573.5487     81.0814     46.6395    293.1936      0.0000     72.5203     75.7919     74.3434
  2086.0000    566.3298     82.3363     46.5319    293.2457      0.0000     72.2405     75.3475     74.1379
  2085.5000    577.5592     91.0358     46.1584    293.2532      0.0000     71.5445     75.2221     73.5991
  2085.0000    559.9130     99.1747     45.8559    293.2687      0.0000     70.8567     75.5783     73.1377
  2084.5000    578.3613     93.2104     45.4032    293.3444      0.0000     70.8476     75.0068     72.9447
  2084.0000    580.7676     86.4450     44.7017    293.4050      0.0000     71.1816     73.3178     72.6164
  2083.5000    582.3718     82.6498     44.4275    293.3570      0.0000     70.7193     73.3497     72.0762
  2083.0000    567.9340     79.6602     44.5340    293.3045      0.0000     70.3708     73.6154     71.7934
  2082.5000    573.5487     75.8386     44.6652    293.3505      0.0000     70.3147     73.5586     71.6298
  2082.0000    552.6940     85.2251     44.4715    293.3994      0.0000     69.7386     73.0080     71.0760
  2081.5000    577.5592     97.8634     44.0631    293.3270      0.0000     68.9870     72.0421     70.2152
  2081.0000    578.3613     93.3030     43.5896    293.3807      0.0000     67.8758     70.7821     69.2484
