~Version Information
VERS.                      2.0: CWLS Log ASCII Standard - VERSION 2.0
WRAP.                       NO: One line per depth step
~Well Information Block
STRT.FT                17.0000: 
STOP.FT             10431.5000: 
STEP.FT                 0.5000: 
NULL.                -999.2500: 
COMP.          WPX ENERGY WILLISTON, LLC: COMPANY
WELL.          OTTER WOMAN 34-27HG: WELL
FLD.                  MANDAREE: FIELD
LOC.           LOT2--247' FNL & 2311' FEL: LOCATION
CNTY.                     DUNN: COUNTY
SRVC.                         : SERVICE COMPANY
DATE.          Fri Jun 15 18-22-46 2018: LOG DATE
UWI.              33-025-03337: UNIQUE WELL ID
STAT.                N. DAKOTA: STATE
~Curve Information Block
DEPT.FT            0 000 00 00: Depth
LTEN.lb                       : Surface Line Tension
GR.GAPI                       : Gamma Ray
AMP3FT.mV                     : AMP3FT Amplitude
TT3FT.usec                    : 3FT Travel Time
AMPMIN.                       : Minimum Sector Amplitude
AMPMAX.                       : Maximum Sector Amplitude
AMPAVG.                       : Average Sector Amplitude
CCL.                          : Casing Collar Locator
~Parameter Information Block
~A  Depth       LTEN         GR        AMP3FT      TT3FT       AMPMIN      AMPMAX      AMPAVG       CCL     
# ...
  9017.0000   1891.3477     43.4390      6.9420    329.4494      0.5398     20.6256      9.3659      0.0000
  9017.5000   1888.9735     61.3011      6.3182    329.8693      2.0122     19.1430      8.5923      0.0000
  9018.0000   1894.5132     63.2156      5.5030    330.0060      2.0540     17.6770      7.9811      0.0000
  9018.5000   1895.3046     49.2818      4.4787    329.7462      1.3031     15.3882      7.2658      0.0000
  9019.0000   1884.2252     43.2438      3.7932    329.1279      0.8633     15.7579      7.0840      0.0000
  9019.5000   1891.3477     44.2163      3.2701    328.2452      0.2441     13.8215      6.1282      0.0000
  9020.0000   1881.8511     48.6844      2.8795    328.2777      0.5150     13.1790      5.5404      0.0000
  9020.5000   1885.8080     59.2792      2.4634    328.7708      0.5977     11.9486      6.0150      0.0000
  9021.0000   1900.8442     61.1221      1.8948    328.4943      0.6230     12.5289      6.6103      0.0000
  9021.5000   1903.2185     53.8475      1.9195    328.5110     -0.1032     13.9404      7.8732      0.0000
  9022.0000   1892.1390     49.1050      2.4528    328.4012      0.5132     16.6004      9.2927      0.0000
  9022.5000   1887.3907     44.8398      2.3444    327.8696      0.2608     18.4413      9.6610      0.0000
  9023.0000   1893.7218     45.4745      2.0295    327.0828     -0.7237     18.9915      9.3722      0.0000
  9023.5000   1896.0959     53.0210      2.4089    326.4213     -1.4184     15.4257      8.1050      0.0000
  9024.0000   1908.7582     61.8985      2.8940    326.4486     -0.2041     15.2535      7.5084      0.0000
  9024.5000   1911.1323     59.8322      4.0222    326.9680      1.2897     17.3970      7.9998      0.0000
  9025.0000   1888.9735     54.0891      5.5421    327.4794      3.0456     20.2647      9.6581      0.0000
  9025.5000   1904.8013     54.2887      5.5795    327.8925      3.4261     22.2766     10.4969      0.0000
  9026.0000   1890.5563     51.1193      7.1820    327.7683      3.4779     24.6546     12.1105      0.0000
  9026.5000   1898.4701     47.1434      9.7621    327.1563      3.3058     28.2071     14.7515      0.0000
  9027.0000   1907.9668     53.3061     11.3989    321.9608      3.1356     32.0491     17.1381      0.0000
  9027.5000   1904.0099     59.4340     13.2467    308.3171      7.3799     34.5316     20.4666      0.0000
  9028.0000   1896.8873     61.8930     14.1716    302.1212      8.8537     35.7231     21.5199      0.0000
  9028.5000   1892.9304     58.1509     15.2593    293.9788      9.4440     38.2022     22.7024      0.0000
  9029.0000   1888.1821     50.2469     15.2654    290.2230     10.8665     39.3364     23.4524      0.0000
  9029.5000   1896.8873     46.8329     14.5602    290.5125      9.5798     37.2581     22.0301      0.0000
  9030.0000   1900.8442     57.6370     14.7037    290.3618      9.9932     36.4881     22.2175      0.0000
  9030.5000   1904.0099     65.7325     15.0344    290.0982     12.0997     37.2209     23.2696      0.0000
  9031.0000   1896.0959     58.2510     15.5062    289.7533     12.4307     37.7881     24.0173      0.0000
  9031.5000   1896.0959     51.3217     15.9502    289.2503     12.2289     38.0245     24.4647      0.0000
  9032.0000   1896.0959     43.7484     16.5029    288.9765     13.8814     38.2367     25.2003      0.0000
  9032.5000   1900.8442     36.4776     16.7933    292.4718     14.4876     38.2735     25.2544      0.0000
  9033.0000   1906.3840     40.3175     15.3629    299.4580     12.5979     35.7126     23.4564      0.0000
  9033.5000   1905.5927     47.9477     14.4428    295.0883     12.4730     34.5272     23.1257      0.0000
  9034.0000   1896.0959     48.9254     14.7652    291.4735     13.7525     33.8742     23.4230      0.0000
  9034.5000   1893.7218     53.9176     15.4591    290.8195     14.7696     35.0075     24.2870      0.0000
  9035.0000   1900.0529     67.1114     16.3857    289.7899     17.1258     36.2225     25.5940      0.0000
  9035.5000   1904.8013     76.1356     16.3994    289.8792     15.9720     36.2768     25.1573      0.0000
  9036.0000   1904.8013     79.8620     17.3701    289.6050     17.0381     37.2295     26.5180      0.0000
  9036.5000   1904.8013     80.6687     18.2653    288.9483     18.3105     40.2523     28.6019      0.0000
  9037.0000   1896.0959     72.4071     19.0950    288.4769     19.4869     42.2050     30.0267      0.0000
  9037.5000   1896.0959     64.1170     19.9637    288.0419     20.9021     43.1920     31.3523      0.0000
  9038.0000   1896.0959     60.4497     19.9795    288.0257     21.8290     43.4930     31.5964      0.0000
  9038.5000   1905.5927     51.1988     19.7581    288.0457     22.3548     43.2804     31.5326      0.0000
  9039.0000   1904.0099     41.1609     19.6516    288.1976     22.9014     42.8973     31.9414      0.0000
  9039.5000   1896.0959     48.1728     20.2773    288.0888     24.5431     44.4989     33.5122      0.0000
  9040.0000   1896.0959     56.0065     21.5262    287.9255     26.3248     46.4349     35.6063      0.0000
  9040.5000   1896.0959     47.7589     22.4971    287.8759     28.0932     47.8260     36.8919      0.0000
  9041.0000   1896.0959     35.4083     22.3883    287.4678     27.3005     47.9276     36.6449      0.0000
  9041.5000   1912.7151     29.9392     21.9290    287.5965     24.7801     47.2992     35.4145      0.0000
  9042.0000   1912.7151     35.0339     21.5792    288.0330     22.1778     47.9071     34.4146      0.0000
  9042.5000   1916.6720     47.0682     21.4478    288.1169     21.0966     49.0708     34.1684      0.0000
  9043.0000   1895.3046     58.6105     21.2551    288.0614     20.5118     50.9272     34.2758      0.0000
  9043.5000   1899.2615     57.3734     20.3810    288.1967     19.9626     51.6696     33.8706      0.0000
  9044.0000   1892.1390     50.9491     20.3500    288.6790     20.7019     52.2369     34.3460      0.0000
  9044.5000   1894.5132     54.3557     20.3006    289.2055     19.7889     50.7647     33.3705      0.0000
  9045.0000   1910.3409     59.3056     18.6673    289.8555     16.8155     46.6437     29.8717      0.0000
  9045.5000   1900.0529     54.4655     16.5549    291.1853     13.0973     41.6861     26.1120      0.0000
  9046.0000   1900.0529     45.2268     15.2549    297.3736     10.0718     37.0125     22.5239      0.0000
  9046.5000   1900.0529     44.6632     13.1829    316.2844      8.1795     33.2811     19.4982      0.0000
  9047.0000   1892.1390     51.6487     11.5694    327.6860      9.2728     29.9255     17.9910      0.0000
  9047.5000   1892.9304     57.5092     12.3694    329.2410     16.7566     25.6257     20.7472      0.0000
  9048.0000   1913.5065     53.9304      9.0134    337.5673     12.4518     22.4915     17.0425      0.0000
  9048.5000   1904.0099     43.6467      4.5780    338.7511      3.8565     14.9068      8.5244      0.0000
  9049.0000   1900.0529     44.8695      4.9886    336.5424      0.8244     16.7707      6.7014      2.0000
  9049.5000   1900.0529     56.4282      5.0462    338.3389      1.8409     15.2835      6.8803      0.0000
  9050.0000   1891.3477     63.7729     11.3133    331.4729     12.9230     21.8463     16.9549      0.0000
  9050.5000   1898.4701     61.7464     19.6144    305.5540     26.1501     36.3190     30.3494      0.0000
  9051.0000   1910.3409     54.4222     19.3407    293.2042     22.5227     38.7054     29.5722      0.0000
  9051.5000   1897.6787     53.5497     18.8362    291.3639     22.0116     39.7458     29.4317      0.0000
  9052.0000   1900.0529     61.3764     19.3162    291.3492     24.3831     39.2004     30.2221      0.0000
  9052.5000   1900.0529     72.8178     19.2528    291.3378     24.7472     38.2890     30.3180      0.0000
  9053.0000   1900.0529     83.3134     19.5403    291.0747     24.2360     39.8127     31.1834      0.0000
  9053.5000   1907.9668     78.2085     20.4817    290.7570     23.0624     42.9947     31.9694      0.0000
  9054.0000   1911.9237     66.6911     19.4047    291.1810     21.5152     42.4194     30.4056      0.0000
