~Version Information
VERS.                      2.0: CWLS Log ASCII Standard - VERSION 2.0
WRAP.                       NO: One line per depth step
~Well Information Block
STRT.FT             10330.5000: 
STOP.FT                16.5000: 
STEP.FT                -0.5000: 
NULL.                -999.2500: 
COMP.          WPX ENERGY WILLISTON, LLC: COMPANY
WELL.          OTTER WOMAN 34-27HP: WELL
FLD.                  MANDAREE: FIELD
LOC.           LOT2--249' FNL & 2281' FEL: LOCATION
CNTY.                     DUNN: COUNTY
SRVC.                         : SERVICE COMPANY
DATE.          Fri Jun 15 11-35-34 2018: LOG DATE
UWI.              33-025-03338: UNIQUE WELL ID
STAT.                       ND: STATE
~Curve Information Block
DEPT.FT            0 000 00 00: Depth
LTEN.lb                       : Surface Line Tension
GR.GAPI                       : Gamma Ray
AMP3FT.mV                     : AMP3FT Amplitude
TT3FT.usec                    : 3FT Travel Time
CCL.                          : Casing Collar Locator
AMPMIN.                       : Minimum Sector Amplitude
AMPMAX.                       : Maximum Sector Amplitude
AMPAVG.                       : Average Sector Amplitude
~Parameter Information Block
~A  Depth       LTEN         GR        AMP3FT      TT3FT        CCL        AMPMIN      AMPMAX      AMPAVG   
# ...
  4855.5000   1106.1449    136.1434     29.4012    297.7808      0.0000     44.2715     52.3684     47.5277
  4855.0000   1099.7280    123.1920     29.9262    297.6933      0.0000     44.7862     53.2016     48.4497
  4854.5000   1109.3533    113.8321     30.9221    297.2859      0.0000     45.4322     55.1171     50.0944
  4854.0000   1122.1869    121.7083     31.7553    296.9491      0.0000     45.8328     57.3896     51.3456
  4853.5000   1122.1869    124.4311     32.9009    296.6795      0.0000     46.9600     59.1409     52.8706
  4853.0000   1113.3638    120.4400     33.7971    296.7172      0.0000     49.7029     59.7205     54.5260
  4852.5000   1111.7595    135.0767     33.9500    296.8927      0.0000     51.3306     59.5545     55.2668
  4852.0000   1097.3218    143.4848     33.6970    296.9680      0.0000     51.0386     59.3881     55.2573
  4851.5000   1114.1659    134.7827     34.0607    296.7824      0.0000     51.2074     60.0572     55.8514
  4851.0000   1113.3638    129.9812     34.9769    296.5404      0.0000     52.0315     61.9466     56.9521
  4850.5000   1118.9785    130.7500     36.1562    296.3990      0.0000     53.6248     63.7321     58.5383
  4850.0000   1099.7280    141.3797     37.8291    296.0515      0.0000     56.4303     65.9600     61.1659
  4849.5000   1110.9575    150.1183     39.3173    295.7988      0.0000     58.9371     68.0168     63.4215
  4849.0000   1100.5302    142.2924     40.5091    295.8841      0.0000     60.4617     69.1846     64.8834
  4848.5000   1118.1764    123.1105     40.0629    296.0717      0.0000     59.5037     68.8206     64.1771
  4848.0000   1118.1764    117.2049     37.8971    296.1502      0.0000     56.9246     65.5117     61.1481
  4847.5000   1115.7701    136.4659     35.2097    296.4266      0.0000     52.8691     60.7982     56.8202
  4847.0000   1102.9364    151.0606     33.9853    296.7263      0.0000     50.8939     58.8522     54.9545
  4846.5000   1111.7595    151.2966     33.8711    296.7976      0.0000     50.5617     58.6530     54.9884
  4846.0000   1098.9259    148.7835     34.0349    296.7314      0.0000     50.5806     58.6020     55.1181
  4845.5000   1117.3743    141.9549     34.6754    296.5222      0.0000     50.7872     60.7361     56.2711
  4845.0000   1108.5511    137.7792     36.3935    296.2746      0.0000     52.9551     64.9113     59.2790
  4844.5000   1099.7280    142.1276     38.8279    296.1363      0.0000     57.0993     68.4235     63.0249
  4844.0000   1095.7175    135.1631     40.4221    296.0468      0.0000     59.8762     70.0486     65.4047
  4843.5000   1113.3638    124.9996     41.2754    295.8832      0.0000     61.3785     70.5755     66.4078
  4843.0000   1094.9154    129.9984     41.5993    295.8116      0.0000     61.8951     71.5766     67.0361
  4842.5000   1114.9680    133.1564     41.5217    295.8042      0.0000     61.7516     72.0217     67.1665
  4842.0000   1122.1869    128.2227     41.2059    295.8336      0.0000     61.8273     71.4003     66.7489
  4841.5000   1100.5302    125.1698     40.8652    295.8790      0.0000     61.1396     70.2387     65.7716
  4841.0000   1104.5406    127.2718     40.8751    295.8605      0.0000     60.7276     70.0188     65.4060
  4840.5000   1102.1344    132.5726     40.6916    295.8900      0.0000     60.8585     69.8213     65.3080
  4840.0000   1091.7070    127.8281     40.2173    295.9453      0.0000     60.5302     69.4033     64.8824
  4839.5000   1114.1659    123.2617     39.6990    296.0069      0.0000     59.3899     69.4841     64.2403
  4839.0000   1114.1659    124.3242     39.8470    295.9523      0.0000     58.8205     69.9669     64.3428
  4838.5000   1114.1659    123.6849     40.2233    295.9113      0.0000     59.0649     69.7768     64.5097
  4838.0000   1103.7385    111.9854     40.1940    295.9728      0.0000     59.8540     69.5419     64.8186
  4837.5000   1110.9575    103.1601     40.1034    295.9728      0.0000     59.7038     69.9473     64.9682
  4837.0000   1101.3323    109.9528     40.2447    295.9608      0.0000     59.7710     69.9775     64.9681
  4836.5000   1121.3848    127.4281     40.8563    295.8761      0.0000     60.5742     70.9532     65.7606
  4836.0000   1112.5616    145.7345     41.2495    295.7844      0.0000     61.5576     71.8025     66.5407
  4835.5000   1107.7490    158.4240     41.2846    295.7743      0.0000     61.7007     72.6661     66.8988
  4835.0000   1105.3428    168.0377     41.2949    295.8192      0.0000     61.0769     72.5843     66.6624
  4834.5000   1105.3428    164.5463     41.0857    295.8590      0.0000     60.7455     71.8178     66.4151
  4834.0000   1093.3112    151.4489     40.8248    295.9110      0.0000     60.5832     71.6671     66.2218
  4833.5000   1108.5511    141.1260     40.7665    295.9132      0.0000     60.5982     71.7348     66.1067
  4833.0000   1108.5511    125.4316     40.7805    295.8705      0.0000     60.1374     71.4800     65.8689
  4832.5000   1092.5092    120.2056     40.3067    295.8022      0.0000     59.1636     70.9118     65.0746
  4832.0000   1096.5197    124.9613     38.9013    295.8523      0.0000     57.3545     68.7141     63.1505
  4831.5000   1103.7385    129.4484     37.3998    295.9940      0.0000     55.2498     65.8425     60.8714
  4831.0000   1102.9364    140.1442     36.3861    296.1462      0.0000     53.4039     63.9217     59.0083
  4830.5000   1108.5511    151.8221     35.6217    296.2369      0.0000     52.7419     63.1884     57.9484
  4830.0000   1110.1554    141.0296     35.3914    296.2074      0.0000     53.0198     62.8625     57.8340
  4829.5000   1103.7385    131.9724     35.8008    296.1370      0.0000     53.5451     63.4204     58.4928
  4829.0000   1091.7070    135.9094     36.4102    296.0795      0.0000     54.0499     64.5680     59.3333
  4828.5000   1106.1449    127.0312     37.1757    296.0449      0.0000     55.4399     65.9803     60.7874
  4828.0000   1105.3428    122.2230     38.0388    296.0211      0.0000     57.6560     66.5677     62.1229
  4827.5000   1114.1659    123.3251     38.5312    296.4569      0.0000     58.4837     66.2756     62.4199
  4827.0000   1114.1659    117.7545     36.5075    302.1013      0.0000     55.2436     62.9646     60.0309
  4826.5000   1100.5302    110.7636     34.4744    317.4878      0.0000     48.6569     60.8191     55.0991
  4826.0000   1099.7280    114.3540     29.4041    335.5558      0.0000     38.8615     45.4374     40.4717
  4825.5000   1111.7595    131.9180     22.8428    344.5244      0.0000     30.7499     34.3723     32.1162
  4825.0000   1091.7070    133.2326     22.3410    345.0245      0.0000     31.4834     34.5130     32.7879
  4824.5000   1110.9575    117.0508     22.2738    343.1901      0.0000     31.1047     34.5483     32.3658
  4824.0000   1113.3638    117.6351     27.5179    331.2547      0.0000     36.4584     42.0145     38.0087
  4823.5000   1099.7280    124.7936     35.2604    317.1178      0.0000     48.8460     59.4516     53.7313
  4823.0000   1102.1344    125.8173     33.5427    308.1055      0.0000     50.4374     60.2867     57.3675
  4822.5000   1098.9259    123.9436     37.1986    297.9623      0.0000     58.2432     63.8491     61.3069
  4822.0000   1093.3112    132.3542     38.7041    295.7819      0.0000     60.3329     65.6908     63.0874
  4821.5000   1114.1659    144.4635     38.9684    295.4971      0.0000     59.9388     66.1743     62.9857
  4821.0000   1118.1764    153.0785     38.5606    295.6200      0.0000     59.8650     66.4569     62.7278
  4820.5000   1111.7595    155.4927     37.8534    295.7804      0.0000     59.2303     65.6612     61.9616
  4820.0000   1094.1133    141.4038     37.4583    295.7754      0.0000     58.0939     64.3717     60.7912
  4819.5000   1101.3323    135.4352     37.1863    295.7602      0.0000     57.0016     63.9260     59.9844
  4819.0000   1108.5511    142.5194     36.5481    295.8672      0.0000     55.4989     63.1854     58.8761
  4818.5000   1114.1659    147.6100     35.5527    295.9508      0.0000     53.6179     61.6498     57.3997
