~Version Information
VERS.                      2.0: CWLS Log ASCII Standard - VERSION 2.0
WRAP.                       NO: One line per depth step
~Well Information Block
STRT.FT             10330.5000: 
STOP.FT                16.5000: 
STEP.FT                -0.5000: 
NULL.                -999.2500: 
COMP.          WPX ENERGY WILLISTON, LLC: COMPANY
WELL.          OTTER WOMAN 34-27HP: WELL
FLD.                  MANDAREE: FIELD
LOC.           LOT2--249' FNL & 2281' FEL: LOCATION
CNTY.                     DUNN: COUNTY
SRVC.                         : SERVICE COMPANY
DATE.          Fri Jun 15 11-35-34 2018: LOG DATE
UWI.              33-025-03338: UNIQUE WELL ID
STAT.                       ND: STATE
~Curve Information Block
DEPT.FT            0 000 00 00: Depth
LTEN.lb                       : Surface Line Tension
GR.GAPI                       : Gamma Ray
AMP3FT.mV                     : AMP3FT Amplitude
TT3FT.usec                    : 3FT Travel Time
CCL.                          : Casing Collar Locator
AMPMIN.                       : Minimum Sector Amplitude
AMPMAX.                       : Maximum Sector Amplitude
AMPAVG.                       : Average Sector Amplitude
~Parameter Information Block
~A  Depth       LTEN         GR        AMP3FT      TT3FT        CCL        AMPMIN      AMPMAX      AMPAVG   
# ...
    55.5000    286.3959     90.3084      1.4519    474.0000      0.0000     -0.3753      0.0162     -0.2285
    55.0000    286.3959     89.3906      1.4757    474.0000      0.0000     -0.3862      0.2886     -0.1135
    54.5000    289.6043     73.6499      1.3999    474.0000      0.0000     -0.6358      0.4523     -0.1426
    54.0000    294.4170     52.4897      1.3629    474.0000      0.0000     -0.6138      0.1480     -0.2051
    53.5000    272.7602     43.1699      1.4372    474.0000      0.0000     -0.4965      0.1484     -0.1796
    53.0000    271.9581     45.5480      1.5391    474.0000      0.0000     -0.5735      0.0230     -0.1912
    52.5000    287.1980     38.9852      1.6169    474.0000      0.0000     -0.5400      0.0072     -0.2534
    52.0000    275.1665     27.1674      1.5625    474.0000      0.0000     -0.4960     -0.0420     -0.3087
    51.5000    289.6043     28.5967      1.4530    474.0000      0.0000     -0.3911     -0.1510     -0.2857
    51.0000    288.8022     40.4148      1.4100    474.0000      0.0000     -0.3675      0.0636     -0.1854
    50.5000    279.1770     44.5856      1.3375    474.0000      0.0000     -0.2949      0.1037     -0.1678
    50.0000    275.9686     37.9238      1.3762    474.0000      0.0000     -0.3602      0.1493     -0.1683
    49.5000    276.7707     32.6489      1.5828    474.0000      0.0000     -0.3948      0.1803     -0.1617
    49.0000    269.5518     32.5887      1.5450    474.0000      0.0000     -0.7217     -0.0769     -0.2737
    48.5000    290.4065     37.4806      1.3257    474.0000      0.0000     -0.5435     -0.0362     -0.2976
    48.0000    292.8127     46.3910      1.2323    474.0000      0.0000     -0.5257     -0.1883     -0.3395
    47.5000    269.5518     52.1067      1.3383    474.0000      0.0000     -0.6377     -0.2915     -0.5031
    47.0000    269.5518     51.0190      1.4602    474.0000      0.0000     -0.6814     -0.1774     -0.3950
    46.5000    266.3434     43.6145      1.4422    474.0000      0.0000     -0.6985     -0.0603     -0.2643
    46.0000    279.9791     33.4610      1.3809    474.0000      0.0000     -0.7314     -0.0181     -0.3479
    45.5000    292.8127     29.8705      1.4693    474.0000      0.0000     -0.5207     -0.3462     -0.4143
    45.0000    286.3959     30.5702      1.5372    474.0000      0.0000     -0.6785     -0.0878     -0.2707
    44.5000    271.1560     28.7270      1.4372    474.0000      0.0000     -0.6156     -0.0912     -0.2510
    44.0000    282.3854     29.7169      1.4627    474.0000      0.0000     -0.3110      0.0501     -0.1167
    43.5000    282.3854     33.2426      1.6164    474.0000      0.0000     -0.3766      0.1611     -0.0586
    43.0000    270.3539     34.5935      1.5606    474.0000      0.0000     -0.6219     -0.2083     -0.4071
    42.5000    283.1875     36.8091      1.6324    474.0000      0.0000     -0.4611     -0.1152     -0.2921
    42.0000    282.3854     38.2219      1.6067    474.0000      0.0000     -0.2470      0.2610      0.0136
    41.5000    260.7286     38.3815      1.4975    474.0000      0.0000     -0.1731      0.1237     -0.0641
    41.0000    266.3434     41.0635      1.4882    474.0000      0.0000     -0.3987      0.1326     -0.2310
    40.5000    288.8022     45.9132      1.7787    474.0000      0.0000     -0.2869      0.1575     -0.1089
    40.0000    288.0002     52.8204      1.8612    474.0000      0.0000     -0.3044      0.2129     -0.1070
    39.5000    288.0002     63.4394      1.5645    474.0000      0.0000     -0.2915      0.4586     -0.1213
    39.0000    280.7812     66.7668      1.5579    474.0000      0.0000     -0.3747      0.0572     -0.1732
    38.5000    231.0509     54.8787      1.5659    474.0000      0.0000     -0.4048      0.0711     -0.2309
    38.0000    252.7076     45.5579      1.5488    474.0000      0.0000     -0.4219     -0.0940     -0.2781
    37.5000    260.7286     44.0875      1.4324    474.0000      0.0000     -0.5798     -0.0764     -0.3327
    37.0000    251.1034     39.4647      1.2408    474.0000      0.0000     -0.5262      0.1188     -0.2524
    36.5000    266.3434     29.4918      1.2087    474.0000      0.0000     -0.4891      0.0397     -0.1825
    36.0000    266.3434     26.3637      1.2397    474.0000      0.0000     -0.5408      0.1167     -0.2417
    35.5000    263.1349     36.0732      1.3782    474.0000      0.0000     -0.4590      0.1237     -0.2235
    35.0000    263.9371     47.1016      1.5125    474.0000      0.0000     -0.3809      0.0317     -0.1707
    34.5000    270.3539     54.7636      1.4966    474.0000      0.0000     -0.4414      0.2561     -0.2204
    34.0000    304.0422     50.9719      1.5235    474.0000      0.0000     -0.5421      0.1152     -0.2385
    33.5000    319.2821     39.1574      1.5352    474.0000      0.0000     -0.3832      0.1783     -0.1709
    33.0000    313.6674     32.7521      1.4000    474.0000      0.0000     -0.4323      0.1314     -0.1669
    32.5000    296.8233     29.3164      1.1705    474.0000      0.0000     -0.4826      0.0916     -0.2745
    32.0000    301.6359     29.7182      1.3462    474.0000      0.0000     -0.5676      0.2074     -0.2424
    31.5000    296.8233     34.0048      1.5883    474.0000     -2.0000     -0.4146      0.0249     -0.1530
    31.0000    303.2401     36.0925      1.6962    474.0000      0.0000     -0.3437      0.0157     -0.1709
    30.5000    308.0527     29.4641      1.5464    474.0000      0.0000     -0.5238     -0.2970     -0.4253
    30.0000    305.6464     22.8612      1.5925    474.0000      0.0000     -0.5678     -0.1488     -0.3466
    29.5000    286.3959     26.8174      1.5496    474.0000      0.0000     -0.1333      0.2825      0.0774
    29.0000    288.0002     39.1575      1.6520    474.0000      0.0000      0.0770      2.3552      1.0189
    28.5000    270.3539     44.7307      1.7763    474.0000      0.0000      0.0346      2.7156      1.1896
    28.0000    269.5518     37.2433      1.4894    474.0000      0.0000     -0.5940      0.6106      0.1359
    27.5000    278.3749     28.1974      1.4318    474.0000      0.0000     -0.6443      0.1063     -0.2584
    27.0000    256.7181     27.8691      1.5415    474.0000      0.0000     -0.6512      0.9972     -0.0248
    26.5000    246.2908     25.4500      1.5269    474.0000      2.0000     -0.6356      0.1831     -0.3069
    26.0000    249.4992     23.5611      1.4711    474.0000      2.0000     -0.5560     -0.1374     -0.3658
    25.5000    230.2487     25.4186      1.3626    474.0000     -2.0000     -0.4784     -0.0843     -0.2925
    25.0000    243.0824     31.2214      1.3783    474.0000      0.0000     -0.3993      0.0248     -0.2053
    24.5000    247.8950     45.9916      1.3140    474.0000      0.0000     -0.4675     -0.0850     -0.2669
    24.0000    246.2908     66.2685      1.3502    474.0000      2.0000     -0.4574     -0.1454     -0.3025
    23.5000    260.7286     76.4754      1.3688    474.0000      0.0000     -0.3908      0.3601     -0.1729
    23.0000    246.2908     91.0050      1.4394    474.0000      0.0000     -0.2148      0.8403      0.1891
    22.5000    247.0929    108.1216      1.7015    474.0000      2.0000      0.1804      0.9993      0.6199
    22.0000    256.7181     99.4507      1.5337    474.0000      0.0000     -0.0756      0.3243      0.0702
    21.5000    243.8845     83.3916      1.5251    474.0000      0.0000     -0.1926      0.3023      0.0232
    21.0000    321.6884     80.3936      2.1908    474.0000      0.0000     -0.3434      1.7122      0.8543
    20.5000    294.4170     84.8666      2.1110    474.0000     -2.0000     -0.4916      1.4919      0.6605
    20.0000    290.4065     86.8483      1.9431    474.0000      0.0000      0.2483      1.6499      1.0249
    19.5000    290.4065     79.9462      2.0809    474.0000      0.0000      0.0592      3.5373      1.9028
    19.0000    304.0422     77.8812      2.0966    474.0000      0.0000     -0.6243      3.7652      1.5240
    18.5000    284.7917     82.2843      1.7862    474.0000      0.0000     -0.1483      2.6694      1.0072
