~Version Information
VERS.                      2.0: CWLS Log ASCII Standard - VERSION 2.0
WRAP.                       NO: One line per depth step
~Well Information Block
STRT.FT                17.0000: 
STOP.FT             10431.5000: 
STEP.FT                 0.5000: 
NULL.                -999.2500: 
COMP.          WPX ENERGY WILLISTON, LLC: COMPANY
WELL.          OTTER WOMAN 34-27HG: WELL
FLD.                  MANDAREE: FIELD
LOC.           LOT2--247' FNL & 2311' FEL: LOCATION
CNTY.                     DUNN: COUNTY
SRVC.                         : SERVICE COMPANY
DATE.          Fri Jun 15 18-22-46 2018: LOG DATE
UWI.              33-025-03337: UNIQUE WELL ID
STAT.                N. DAKOTA: STATE
~Curve Information Block
DEPT.FT            0 000 00 00: Depth
LTEN.lb                       : Surface Line Tension
GR.GAPI                       : Gamma Ray
AMP3FT.mV                     : AMP3FT Amplitude
TT3FT.usec                    : 3FT Travel Time
AMPMIN.                       : Minimum Sector Amplitude
AMPMAX.                       : Maximum Sector Amplitude
AMPAVG.                       : Average Sector Amplitude
CCL.                          : Casing Collar Locator
~Parameter Information Block
~A  Depth       LTEN         GR        AMP3FT      TT3FT       AMPMIN      AMPMAX      AMPAVG       CCL     
# ...
  4179.5000    953.5566    127.9178     33.3424    288.0624     47.7677     60.3190     54.9634      0.0000
  4180.0000    956.7221    136.5721     32.8180    288.1273     45.7527     61.7054     54.4638      0.0000
  4180.5000    932.1892    136.2281     32.6241    288.4781     45.2896     62.1897     53.8497      0.0000
  4181.0000    946.4341    136.3329     33.4918    288.6721     46.8897     61.1032     53.4867      0.0000
  4181.5000    948.0169    138.1504     33.9726    288.6599     46.8822     59.8036     53.3812      0.0000
  4182.0000    970.1757    133.9485     34.0140    288.8505     47.5796     59.2670     52.8584      0.0000
  4182.5000    964.6360    128.6711     34.5280    289.1013     50.3598     59.3728     53.9099      0.0000
  4183.0000    940.1030    135.6956     35.9703    289.0029     53.5948     61.3725     56.8169      0.0000
  4183.5000    934.5634    153.1999     36.8798    288.8470     54.3811     61.1006     58.2458      0.0000
  4184.0000    951.1824    162.3139     40.1730    288.3275     53.8462     62.9911     58.7904      0.0000
  4184.5000    936.9375    157.6017     39.5177    287.9101     49.5762     63.7687     57.4988      0.0000
  4185.0000    957.5135    147.9147     34.3824    288.4762     49.1998     59.4503     54.3737      0.0000
  4185.5000    966.2188    145.8370     32.1448    289.0932     47.5620     57.8462     52.1676      0.0000
  4186.0000    957.5135    152.0703     32.1172    289.1524     46.3728     56.2980     50.9147      0.0000
  4186.5000    930.6064    152.5518     31.5487    289.0113     45.0896     55.7903     50.5144      0.0000
  4187.0000    951.9738    162.5402     30.9774    289.2997     44.6773     56.4046     51.1115      0.0000
  4187.5000    926.6495    170.8388     31.7134    289.6811     47.6636     58.4707     52.3956      0.0000
  4188.0000    951.9738    159.9471     34.9336    289.2609     52.4638     61.5100     56.2662      0.0000
  4188.5000    960.6790    148.6496     37.3431    288.9460     56.6938     64.1320     59.8057      0.0000
  4189.0000    966.2188    136.2893     37.6730    288.5581     57.2330     65.0090     60.3301      0.0000
  4189.5000    949.5997    116.2518     37.5669    288.2874     56.5196     65.1717     59.7262      0.0000
  4190.0000    937.7289    110.3350     37.6233    288.2696     57.2429     66.2482     60.9995      0.0000
  4190.5000    936.9375    123.2087     37.7863    288.3019     57.2363     67.8227     62.9951      0.0000
  4191.0000    956.7221    145.4338     37.4006    288.4059     54.6105     68.4570     62.5285      0.0000
  4191.5000    961.4705    163.4645     36.7291    288.6843     51.3876     68.5954     59.5708      0.0000
  4192.0000    951.9738    160.5875     35.3032    289.0220     50.6925     67.8515     57.1982      0.0000
  4192.5000    936.9375    154.3287     34.5272    289.3791     50.9355     63.1954     56.0927      0.0000
  4193.0000    954.3480    152.4323     33.6356    289.3403     49.9294     59.5761     54.3241      0.0000
  4193.5000    938.5203    132.2141     31.9440    289.2989     46.0819     56.2425     50.8279      0.0000
  4194.0000    959.8876    113.1738     31.0886    289.1554     43.8954     54.1828     48.1358      0.0000
  4194.5000    974.1326    109.6436     30.3586    288.9145     42.5436     51.9167     46.5320      0.0000
  4195.0000    959.8876    110.4116     28.8964    288.9391     41.0512     51.6231     46.2338      0.0000
  4195.5000    929.8151    117.4594     28.6886    289.2098     41.7991     53.8535     46.9374      0.0000
  4196.0000    950.3911    133.2202     28.9769    289.2290     41.9215     53.6917     46.6316      0.0000
  4196.5000    930.6064    151.8299     28.0562    288.9417     40.9747     49.2631     44.7722      0.0000
  4197.0000    947.2255    163.6201     26.6573    288.8638     38.8396     45.1155     42.1232      0.0000
  4197.5000    940.1030    162.7449     25.5694    289.8627     35.6821     44.0192     39.9050      0.0000
  4198.0000    940.1030    158.4427     25.9354    291.0641     33.4084     44.7505     38.9367      0.0000
  4198.5000    947.2255    156.4020     26.0265    291.1444     34.3655     45.1680     39.4974      0.0000
  4199.0000    941.6858    144.7993     24.7346    290.7525     32.5555     44.3758     39.6671      0.0000
  4199.5000    932.9806    129.5000     24.9742    290.3043     34.4212     44.5611     39.9730      0.0000
  4200.0000    957.5135    139.5973     26.5168    289.7918     36.4201     46.7257     41.6585      0.0000
  4200.5000    964.6360    154.4171     27.0973    289.6720     38.4260     47.6748     42.6859      0.0000
  4201.0000    952.7652    145.6423     26.3873    289.3337     38.2451     48.2532     42.2707      0.0000
  4201.5000    936.1461    133.1960     24.7339    289.7661     36.1551     46.3642     41.6718      0.0000
  4202.0000    951.1824    132.9289     24.1441    290.1129     35.4485     46.8765     41.1681      0.0000
  4202.5000    938.5203    146.5538     25.4237    289.3683     33.8101     47.7566     40.1467      0.0000
  4203.0000    953.5566    150.6159     25.0872    289.6767     35.4490     45.0447     39.2320      0.0000
  4203.5000    962.2618    145.9694     23.4094    291.4185     34.2184     40.3951     36.9287      0.0000
  4204.0000    962.2618    144.7038     23.8105    295.4180     34.3326     41.7513     38.0021      0.0000
  4204.5000    932.9806    138.3898     21.9283    299.5593     30.4787     37.7714     34.2268      0.0000
  4205.0000    939.3116    130.1783     17.5599    299.6602     23.7247     28.1787     26.3890      0.0000
  4205.5000    949.5997    138.6273     16.4796    298.7076     22.5209     27.6156     25.3930     -2.0000
  4206.0000    967.0101    152.3833     16.7142    298.6649     22.9571     27.6293     25.7648      0.0000
  4206.5000    957.5135    160.8877     18.3050    300.5376     25.5879     30.7583     27.9919      0.0000
  4207.0000    937.7289    178.4220     22.0410    304.2626     31.9550     38.5361     35.2036      0.0000
  4207.5000    950.3911    189.1185     23.5718    300.1096     33.9615     45.4471     38.4306      0.0000
  4208.0000    942.4772    176.0306     26.0069    290.5468     34.5907     47.8180     40.5579      0.0000
  4208.5000    940.1030    157.3368     25.4192    288.8320     33.1693     44.2477     38.6568      0.0000
  4209.0000    957.5135    163.3175     22.7373    290.2436     32.1286     40.8417     36.1413      0.0000
  4209.5000    959.0963    173.0410     21.8684    290.6153     31.2951     38.9078     34.9814      0.0000
  4210.0000    951.1824    159.6091     22.4099    291.6124     32.8953     40.2303     36.7338      0.0000
  4210.5000    932.9806    150.2066     21.4179    299.2189     33.5444     42.4812     38.1977      0.0000
  4211.0000    949.5997    159.3429     21.8075    299.1838     33.2826     44.8383     38.6186      0.0000
  4211.5000    941.6858    169.2046     23.3158    291.3842     33.1011     43.8930     38.1066      0.0000
  4212.0000    959.8876    172.2574     22.1533    290.3257     30.8508     41.0407     35.9322      0.0000
  4212.5000    967.8015    161.6765     20.4111    291.0676     27.6207     38.7907     32.9196      0.0000
  4213.0000    934.5634    147.2783     19.3410    291.6068     26.2515     36.6388     30.9149      0.0000
  4213.5000    955.1393    137.5967     19.8878    291.4615     26.8804     36.7215     31.3894      0.0000
  4214.0000    938.5203    132.1556     21.2450    291.1424     29.0987     38.7473     33.4787      0.0000
  4214.5000    948.8083    125.8507     22.6888    290.6789     32.0487     40.6969     35.8042      0.0000
  4215.0000    966.2188    127.1627     23.5934    290.0768     33.9628     42.4692     38.0425      0.0000
  4215.5000    967.0101    150.9311     23.7233    289.8365     34.5509     42.8350     38.8814      0.0000
  4216.0000    944.0599    171.6624     24.7095    289.7357     33.1073     41.6038     38.2676      0.0000
  4216.5000    933.7720    167.7234     25.0357    289.1683     32.9422     40.8313     37.1360      0.0000
