~Version Information
VERS.                      2.0: CWLS Log ASCII Standard - VERSION 2.0
WRAP.                       NO: One line per depth step
~Well Information Block
STRT.FT                17.0000: 
STOP.FT             10431.5000: 
STEP.FT                 0.5000: 
NULL.                -999.2500: 
COMP.          WPX ENERGY WILLISTON, LLC: COMPANY
WELL.          OTTER WOMAN 34-27HG: WELL
FLD.                  MANDAREE: FIELD
LOC.           LOT2--247' FNL & 2311' FEL: LOCATION
CNTY.                     DUNN: COUNTY
SRVC.                         : SERVICE COMPANY
DATE.          Fri Jun 15 18-22-46 2018: LOG DATE
UWI.              33-025-03337: UNIQUE WELL ID
STAT.                N. DAKOTA: STATE
~Curve Information Block
DEPT.FT            0 000 00 00: Depth
LTEN.lb                       : Surface Line Tension
GR.GAPI                       : Gamma Ray
AMP3FT.mV                     : AMP3FT Amplitude
TT3FT.usec                    : 3FT Travel Time
AMPMIN.                       : Minimum Sector Amplitude
AMPMAX.                       : Maximum Sector Amplitude
AMPAVG.                       : Average Sector Amplitude
CCL.                          : Casing Collar Locator
~Parameter Information Block
~A  Depth       LTEN         GR        AMP3FT      TT3FT       AMPMIN      AMPMAX      AMPAVG       CCL     
# ...
  7629.5000   1590.6215    130.7340     28.3284    289.1795     39.3593     54.4879     46.1271      0.0000
  7630.0000   1609.6146    130.1011     27.1050    289.5321     37.1543     52.2178     43.6541      0.0000
  7630.5000   1604.0750    135.5190     26.6778    289.4404     35.8660     50.7107     42.4290      0.0000
  7631.0000   1581.9161    158.8990     26.2600    289.3301     34.5761     51.3850     42.3303      0.0000
  7631.5000   1581.9161    176.2591     26.2451    289.7124     33.9960     52.4012     42.3836      0.0000
  7632.0000   1583.4989    162.8219     25.8018    289.8141     33.9936     52.1170     41.9402      0.0000
  7632.5000   1599.3267    137.0147     25.7219    289.6289     34.8992     51.5528     42.1741      0.0000
  7633.0000   1611.9888    129.8897     26.6991    289.4447     36.3775     52.6727     43.6504      0.0000
  7633.5000   1604.0750    138.6873     27.9559    289.6670     38.8709     54.9660     45.7255      0.0000
  7634.0000   1586.6646    142.7306     30.2537    291.5030     41.4122     60.3793     50.1431      0.0000
  7634.5000   1596.1611    140.4734     31.9625    299.3102     45.4174     68.1703     56.0150      0.0000
  7635.0000   1582.7075    134.1790     22.9662    309.2949     35.3941     50.3225     42.2453      0.0000
  7635.5000   1590.6215    139.7969     16.9708    304.0777     24.6567     34.5450     28.9314      0.0000
  7636.0000   1614.3629    165.3802     17.1117    299.4153     22.9968     32.2268     27.1711      0.0000
  7636.5000   1608.0319    183.7726     18.7367    299.5334     23.1601     32.8325     28.3524      0.0000
  7637.0000   1586.6646    181.6111     27.0966    298.7961     34.0133     49.1417     41.7662      0.0000
  7637.5000   1582.7075    192.0196     34.9254    294.8636     46.5124     67.8545     56.2543      0.0000
  7638.0000   1583.4989    212.6090     32.0700    290.9818     43.4462     62.3109     52.0771      0.0000
  7638.5000   1600.9094    218.2650     30.3389    289.6854     41.6030     58.7439     49.4015      0.0000
  7639.0000   1615.9457    216.6939     30.8355    289.5998     41.5293     59.9553     49.7169      0.0000
  7639.5000   1613.5715    205.6148     31.6594    289.6539     42.3420     60.6921     51.1520      0.0000
  7640.0000   1590.6215    180.9005     32.2001    289.7712     44.5423     61.4373     53.4155      0.0000
  7640.5000   1596.9525    163.8696     32.4763    289.5979     45.5793     61.1903     53.7322      0.0000
  7641.0000   1592.9956    161.2748     33.2171    289.4026     46.7672     61.5182     54.1285      0.0000
  7641.5000   1594.5784    165.5144     33.9357    289.4503     47.8084     62.5707     55.0753      0.0000
  7642.0000   1618.3199    182.2549     34.6505    289.6645     47.6636     63.3531     55.5754      0.0000
  7642.5000   1615.9457    179.2956     35.8843    289.4251     48.7988     64.2663     56.6056      0.0000
  7643.0000   1592.2042    137.3426     36.3901    289.0783     51.2797     66.3687     58.3819      0.0000
  7643.5000   1602.4922     97.0925     36.3698    288.9397     53.3092     69.0330     59.9747      0.0000
  7644.0000   1591.4128     86.5771     36.5179    288.5259     52.9876     69.0469     59.6295      0.0000
  7644.5000   1604.0750     88.8976     35.4533    288.3384     49.1427     67.1767     57.1420      0.0000
  7645.0000   1616.7371     92.2968     32.8973    288.6678     43.6326     63.0153     52.5138      0.0000
  7645.5000   1612.7802     85.7424     31.7117    288.6967     42.2634     60.7214     50.6580      0.0000
  7646.0000   1576.3765     84.1469     32.7086    288.4393     46.0611     62.6117     53.5550      0.0000
  7646.5000   1583.4989     94.3791     34.7746    288.4545     49.9059     65.6467     57.3999      0.0000
  7647.0000   1590.6215    104.0439     36.2850    288.8871     51.1819     69.3171     59.5167      0.0000
  7647.5000   1589.8301    121.8974     36.2459    289.1274     51.7839     68.2934     59.6467      0.0000
  7648.0000   1611.9888    135.9049     34.6513    289.2600     50.1803     63.7881     57.0720      0.0000
  7648.5000   1598.5353    141.5421     34.8820    289.6015     49.6257     62.7411     55.4888      0.0000
  7649.0000   1591.4128    134.7520     36.4047    289.6529     51.3570     64.9592     56.8623      0.0000
  7649.5000   1596.1611     98.8965     37.4393    289.2012     53.8393     69.3130     60.2629      0.0000
  7650.0000   1588.2473     68.4579     38.6283    289.0217     56.0061     71.8105     63.0111      0.0000
  7650.5000   1603.2836     61.5902     38.4225    288.7179     54.9297     71.3486     62.5538      0.0000
  7651.0000   1615.1543     67.8399     35.8488    288.1690     50.2398     67.7263     58.3219      0.0000
  7651.5000   1615.9457     71.3883     33.3686    288.2355     45.7271     62.8474     54.0146      0.0000
  7652.0000   1589.0387     71.5891     33.5581    288.1461     46.9438     62.1316     54.4111      0.0000
  7652.5000   1596.1611     86.4071     36.8676    288.3857     52.4375     66.8894     59.8222      0.0000
  7653.0000   1592.2042    115.0474     37.2209    289.0963     54.8858     68.1023     60.9017      0.0000
  7653.5000   1609.6146    127.9716     34.7961    289.6479     51.1423     65.1708     57.9487      0.0000
  7654.0000   1608.0319    126.4447     35.2065    289.4976     51.1087     65.1773     57.6418      0.0000
  7654.5000   1598.5353    120.6759     36.6466    288.8793     53.6171     66.8337     59.4022      0.0000
  7655.0000   1593.7870    108.1444     36.7986    288.6854     54.0854     69.4977     60.7080      0.0000
  7655.5000   1604.8663    106.6152     36.1829    288.8929     52.9192     69.3695     59.6957      0.0000
  7656.0000   1593.7870    102.7196     35.8823    289.0117     52.1153     66.0175     58.4610      0.0000
  7656.5000   1608.8232     78.7268     36.4780    289.1299     52.5033     65.8760     59.0710      0.0000
  7657.0000   1623.8596     58.0213     38.8638    288.8306     56.3014     70.6688     62.4320      0.0000
  7657.5000   1615.1543     60.9715     40.3600    288.5181     58.7496     73.9948     64.7247      0.0000
  7658.0000   1596.9525     83.7278     39.0426    288.9651     56.5667     70.1155     62.8516      0.0000
  7658.5000   1597.7439    105.2315     37.9626    289.2050     56.0461     65.9059     61.2205      0.0000
  7659.0000   1599.3267    108.1627     38.3892    289.3056     56.9076     67.3370     61.8666      0.0000
  7659.5000   1608.0319    105.1133     39.5867    289.1804     58.3606     70.3350     64.0372      0.0000
  7660.0000   1611.9888    106.1272     40.2520    288.8898     58.7707     71.2752     65.5667      0.0000
  7660.5000   1599.3267     96.1055     39.7685    288.9016     58.1763     69.9154     64.7255      0.0000
  7661.0000   1594.5784     88.7754     39.3572    288.6122     58.3109     69.3830     63.6655      0.0000
  7661.5000   1598.5353     89.2081     39.8345    288.4254     58.3316     68.2710     63.0172      0.0000
  7662.0000   1589.0387     78.7486     40.8161    288.7507     59.7334     69.1581     64.0516      0.0000
  7662.5000   1605.6577     66.1957     40.1562    288.8321     59.9418     69.9844     64.5571      0.0000
  7663.0000   1626.2338     77.0574     38.1974    289.1150     57.7523     67.2992     62.2023      0.0000
  7663.5000   1618.3199    101.3201     37.3491    289.1813     55.8884     65.2250     60.3201      0.0000
  7664.0000   1599.3267    117.0434     37.7051    288.8093     55.4003     64.9699     60.0992      0.0000
  7664.5000   1596.9525    122.6514     37.7120    288.7756     56.5608     65.2955     60.4716      0.0000
  7665.0000   1596.9525    123.7976     37.8458    288.9821     56.3729     64.9595     60.2666      0.0000
  7665.5000   1615.9457    112.4429     37.7484    289.0874     54.9296     64.2092     59.4265      0.0000
  7666.0000   1614.3629     95.7607     37.5510    288.9972     54.5095     63.3062     59.0919      0.0000
  7666.5000   1604.8663    102.7488     37.1555    288.8604     55.1234     63.0815     59.1177      0.0000
