~Version Information
VERS.                      2.0: CWLS Log ASCII Standard - VERSION 2.0
WRAP.                       NO: One line per depth step
~Well Information Block
STRT.FT             10330.5000: 
STOP.FT                16.5000: 
STEP.FT                -0.5000: 
NULL.                -999.2500: 
COMP.          WPX ENERGY WILLISTON, LLC: COMPANY
WELL.          OTTER WOMAN 34-27HP: WELL
FLD.                  MANDAREE: FIELD
LOC.           LOT2--249' FNL & 2281' FEL: LOCATION
CNTY.                     DUNN: COUNTY
SRVC.                         : SERVICE COMPANY
DATE.          Fri Jun 15 11-35-34 2018: LOG DATE
UWI.              33-025-03338: UNIQUE WELL ID
STAT.                       ND: STATE
~Curve Information Block
DEPT.FT            0 000 00 00: Depth
LTEN.lb                       : Surface Line Tension
GR.GAPI                       : Gamma Ray
AMP3FT.mV                     : AMP3FT Amplitude
TT3FT.usec                    : 3FT Travel Time
CCL.                          : Casing Collar Locator
AMPMIN.                       : Minimum Sector Amplitude
AMPMAX.                       : Maximum Sector Amplitude
AMPAVG.                       : Average Sector Amplitude
~Parameter Information Block
~A  Depth       LTEN         GR        AMP3FT      TT3FT        CCL        AMPMIN      AMPMAX      AMPAVG   
# ...
  3468.0000    833.4299    173.8205     10.7648    342.1815      0.0000     12.3722     20.0732     15.8976
  3467.5000    843.0552    177.5455     10.2493    342.2310      0.0000     12.1493     19.2737     15.0084
  3467.0000    832.6279    173.4750     10.1351    342.2899      0.0000     12.1336     18.6518     14.7000
  3466.5000    850.2741    169.4548      9.8262    342.4290      0.0000     11.8219     18.1779     14.5203
  3466.0000    846.2636    164.1788     10.0340    342.5607      0.0000     11.7017     18.0724     14.5593
  3465.5000    844.6594    152.3453     10.3138    342.6138      0.0000     11.7270     18.1863     14.7922
  3465.0000    835.0342    149.9729     10.3436    342.6226      0.0000     11.9164     18.4180     15.0521
  3464.5000    845.4615    160.0299     10.2330    342.5918      0.0000     11.7605     18.9035     15.0817
  3464.0000    831.8257    172.6900     10.0636    342.6118      0.0000     11.5556     19.0377     14.8614
  3463.5000    854.2846    177.0166      9.7712    342.5937      0.0000     11.7396     19.4589     14.9806
  3463.0000    854.2846    176.0723      9.8940    342.5889      0.0000     11.8834     19.7350     15.0969
  3462.5000    846.2636    177.1595     10.1664    342.6884      0.0000     11.7424     19.5535     14.8618
  3462.0000    836.6384    170.0144      9.9399    342.7345      0.0000     11.5151     19.3567     14.6282
  3461.5000    841.4510    163.0675      9.6998    342.7763      0.0000     11.1534     18.5398     14.2146
  3461.0000    827.0131    158.3354      9.6239    342.8570      0.0000     10.8686     17.8661     13.8922
  3460.5000    853.4825    152.1590      9.5229    342.9649      0.0000     10.7946     17.4135     13.5547
  3460.0000    854.2846    155.0979      9.3591    343.0759      0.0000     10.7674     17.2144     13.3415
  3459.5000    839.0447    156.6471      9.2755    343.0110      0.0000     10.7611     16.9391     13.2339
  3459.0000    832.6279    149.7246      9.0079    342.9161      0.0000     10.6603     16.9249     13.1849
  3458.5000    847.0657    153.8532      9.1035    342.9099      0.0000     10.6317     17.1742     13.3585
  3458.0000    831.0236    170.3394      9.3532    342.9748      0.0000     10.9515     17.5937     13.7577
  3457.5000    852.6804    183.2105      9.2907    343.0570      0.0000     11.1653     17.4140     13.6559
  3457.0000    852.6804    180.2326      9.2381    343.0818      0.0000     11.2966     16.8471     13.4528
  3456.5000    839.0447    164.9435      9.3843    343.1582      0.0000     11.7455     16.3312     13.6452
  3456.0000    828.6173    151.2363      9.5085    343.2546      0.0000     11.7309     15.8045     13.5496
  3455.5000    835.0342    148.4096      9.2777    343.4332      0.0000     11.2462     14.8341     12.8113
  3455.0000    835.0342    155.2888      8.7508    343.6915      0.0000     11.0909     13.9152     12.2066
  3454.5000    854.2846    158.0830      8.5307    343.9271      0.0000     10.8295     13.5250     11.8367
  3454.0000    843.8573    151.9943      8.3373    344.0320      0.0000     10.5728     13.1355     11.6179
  3453.5000    843.8573    154.5730      8.2555    344.1458      0.0000     10.3885     12.7980     11.3851
  3453.0000    841.4510    158.9365      8.1623    344.3273      0.0000     10.0771     12.5509     11.1132
  3452.5000    841.4510    157.0614      7.9803    344.4266      0.0000      9.7538     11.9915     10.8710
  3452.0000    827.0131    164.2482      7.9509    344.4104      0.0000      9.6984     12.0380     10.9465
  3451.5000    847.0657    175.8654      8.0777    344.2425      0.0000     10.0597     12.5377     11.2431
  3451.0000    844.6594    168.6504      8.2675    344.0048      0.0000     10.1655     12.8063     11.3099
  3450.5000    828.6173    143.6373      7.9873    343.8789      0.0000     10.0038     12.4422     11.0759
  3450.0000    823.0026    131.6936      7.9029    343.7930      0.0000      9.7245     12.3622     11.0143
  3449.5000    835.0342    133.9021      8.1345    343.4099      0.0000      9.7389     12.8155     11.3830
  3449.0000    822.2005    141.1999      8.4877    342.8331      0.0000     10.2040     13.2255     11.7243
  3448.5000    843.0552    140.5686      8.5832    342.8549      0.0000     10.3986     13.0917     11.5897
  3448.0000    843.0552    131.5904      8.8016    342.9061      0.0000     10.9640     13.7230     12.1383
  3447.5000    835.0342    126.5393      8.8734    342.8430      0.0000     11.5745     14.1983     12.4969
  3447.0000    826.2110    139.2668      8.7740    342.8430      0.0000     11.1276     14.1863     12.2353
  3446.5000    838.2426    159.5532      8.5359    342.9037      0.0000     10.0977     13.2374     11.5224
  3446.0000    831.0236    159.8394      8.0465    343.3112      0.0000      9.3672     12.3639     10.9282
  3445.5000    843.8573    146.1732      7.5772    343.8279      0.0000      9.1336     11.9300     10.6836
  3445.0000    844.6594    143.2463      7.5626    343.7819      0.0000      9.2165     11.6990     10.4651
  3444.5000    835.8362    154.7095      7.7219    343.7760      0.0000      9.4430     11.5917     10.3683
  3444.0000    834.2321    151.3211      7.5834    343.8354      0.0000      9.4527     11.3195     10.3050
  3443.5000    836.6384    129.8612      7.5646    343.9105      0.0000      9.5219     11.4201     10.3982
  3443.0000    830.2216    122.8149      7.5834    343.9521      0.0000      9.6064     11.7242     10.5597
  3442.5000    844.6594    138.9772      7.6020    343.8929      0.0000      9.6383     11.8381     10.5340
  3442.0000    841.4510    157.2792      7.6819    343.7821      0.0000      9.4201     12.1464     10.4764
  3441.5000    828.6173    161.9229      7.7778    343.6407      0.0000      9.4704     12.1975     10.5960
  3441.0000    826.2110    155.9101      7.8143    343.7186      0.0000      9.4841     11.7427     10.6089
  3440.5000    833.4299    152.8019      7.7375    343.9809      0.0000      9.1269     11.1737     10.1987
  3440.0000    820.5963    149.6812      7.8929    344.1559      0.0000      9.0235     11.0597     10.1767
  3439.5000    847.0657    142.7056      7.8115    344.0751      0.0000      9.6451     11.2882     10.4190
  3439.0000    846.2636    150.0147      7.7387    343.8943      0.0000      9.7693     11.3876     10.5377
  3438.5000    835.8362    159.6512      7.5565    344.0095      0.0000      9.5741     11.3665     10.4441
  3438.0000    822.2005    163.1207      7.3849    348.7218      0.0000      8.9224     11.1390      9.9770
  3437.5000    827.0131    171.9538      7.3755    371.9545      0.0000      8.4701     11.1285      9.4841
  3437.0000    834.2321    181.1787      8.4626    374.6994      0.0000      9.3758     11.9928     10.4724
  3436.5000    847.0657    182.2600      8.6362    357.0954      0.0000      9.1495     11.4630     10.3147
  3436.0000    849.4720    168.9369      6.8013    353.0985      0.0000      7.1953      9.4062      8.2457
  3435.5000    831.8257    147.7835      6.4943    351.7109      0.0000      7.0135      9.6804      8.3139
  3435.0000    835.0342    143.6083      6.4378    353.3432      0.0000      6.8020      9.7318      8.1584
  3434.5000    832.6279    158.8438      6.8927    361.1742      0.0000      6.9902     10.0662      8.3510
  3434.0000    821.3984    167.6153      8.9275    359.5511      0.0000      9.8929     12.2433     10.9930
  3433.5000    843.0552    174.3944      8.5730    348.9400      0.0000     10.3768     12.5030     11.2889
  3433.0000    843.0552    186.5797      7.8478    344.5003      0.0000      9.4967     11.6167     10.6896
  3432.5000    837.4405    181.8379      7.9496    343.6448      0.0000      9.7212     11.6330     10.8409
  3432.0000    827.8152    168.1633      7.9758    343.5730      0.0000     10.1240     12.3867     11.0100
  3431.5000    831.0236    178.9471      7.8200    343.6355      0.0000      9.8535     12.0386     10.7406
  3431.0000    818.9921    181.9628      7.6019    343.7254      0.0000      9.5039     11.2209     10.3018
