~Version Information
VERS.                      2.0: CWLS Log ASCII Standard - VERSION 2.0
WRAP.                       NO: One line per depth step
~Well Information Block
STRT.FT                17.0000: 
STOP.FT             10431.5000: 
STEP.FT                 0.5000: 
NULL.                -999.2500: 
COMP.          WPX ENERGY WILLISTON, LLC: COMPANY
WELL.          OTTER WOMAN 34-27HG: WELL
FLD.                  MANDAREE: FIELD
LOC.           LOT2--247' FNL & 2311' FEL: LOCATION
CNTY.                     DUNN: COUNTY
SRVC.                         : SERVICE COMPANY
DATE.          Fri Jun 15 18-22-46 2018: LOG DATE
UWI.              33-025-03337: UNIQUE WELL ID
STAT.                N. DAKOTA: STATE
~Curve Information Block
DEPT.FT            0 000 00 00: Depth
LTEN.lb                       : Surface Line Tension
GR.GAPI                       : Gamma Ray
AMP3FT.mV                     : AMP3FT Amplitude
TT3FT.usec                    : 3FT Travel Time
AMPMIN.                       : Minimum Sector Amplitude
AMPMAX.                       : Maximum Sector Amplitude
AMPAVG.                       : Average Sector Amplitude
CCL.                          : Casing Collar Locator
~Parameter Information Block
~A  Depth       LTEN         GR        AMP3FT      TT3FT       AMPMIN      AMPMAX      AMPAVG       CCL     
# ...
  5567.0000   1216.2964    153.9969      9.3278    331.7492     10.9359     16.8249     14.2895      0.0000
  5567.5000   1218.6705    160.3941      9.0456    331.8936     10.7082     16.9047     14.1212      0.0000
  5568.0000   1221.0447    158.8013     10.1172    332.3800     12.1014     17.8302     15.4582      0.0000
  5568.5000   1190.1807    151.6831     11.2264    332.6672     13.5731     20.0537     17.1747      0.0000
  5569.0000   1201.2600    154.4873     12.1659    332.3209     13.1884     20.8129     17.8326      0.0000
  5569.5000   1200.4686    156.1912     11.8494    331.9196     13.4525     20.9511     17.8674      0.0000
  5570.0000   1220.2533    158.0419     10.8282    331.8405     14.4189     21.4041     17.4109      0.0000
  5570.5000   1222.6274    161.8519     10.0103    331.8667     13.8806     20.5720     16.8239      0.0000
  5571.0000   1213.9222    147.9706     10.7257    328.7386     12.4240     19.0774     15.8262      0.0000
  5571.5000   1189.3893    131.6881     11.7249    323.0489     11.2634     18.0944     15.2406      0.0000
  5572.0000   1207.5912    117.4138     11.0829    328.0239     11.7132     18.0828     15.3437      0.0000
  5572.5000   1192.5548    106.5590     11.6344    326.2739     13.8442     20.4244     17.1122      0.0000
  5573.0000   1201.2600    110.8926     13.1068    312.0197     15.5270     24.6209     19.4568      0.0000
  5573.5000   1213.9222    115.9102     13.9151    305.3994     16.3290     28.0264     20.9256      0.0000
  5574.0000   1198.8859    107.0969     14.5293    297.7078     17.3697     29.9135     22.1403      0.0000
  5574.5000   1194.9290    111.4579     14.3881    299.3820     18.6458     27.8221     22.8214      0.0000
  5575.0000   1208.3826    131.1893     13.4842    316.2041     18.6132     27.7779     22.5585      0.0000
  5575.5000   1195.7203    142.4901     13.3883    316.4048     17.2963     25.2311     21.7087      0.0000
  5576.0000   1206.7998    136.7279     14.2821    299.7920     17.3173     26.0538     22.3688      0.0000
  5576.5000   1213.9222    124.8317     15.5566    293.6053     18.3949     28.7589     24.4603      0.0000
  5577.0000   1215.5050    124.0905     18.9077    291.4193     21.5618     31.2584     27.1893      0.0000
  5577.5000   1181.4755    130.7664     20.4560    290.2805     23.8346     34.4154     28.9916      0.0000
  5578.0000   1194.1376    132.9453     20.4078    290.0551     24.6561     37.6652     30.2440      0.0000
  5578.5000   1187.0151    134.9374     20.4350    290.0996     25.0874     37.0729     30.6346      0.0000
  5579.0000   1207.5912    131.8782     18.4945    291.1507     23.4439     35.4520     28.9591      0.0000
  5579.5000   1210.7567    123.5577     16.2795    297.6873     22.7280     31.4688     26.6357      0.0000
  5580.0000   1207.5912    128.1960     15.2035    315.8916     19.6606     27.8417     23.6039      0.0000
  5580.5000   1179.8927    139.6644     14.6115    332.3073     18.8633     26.7726     22.3001      0.0000
  5581.0000   1194.9290    147.9797     11.9789    338.7357     13.8444     19.8643     17.1075      0.0000
  5581.5000   1220.2533    160.6566     12.1765    328.4513     11.9220     17.9140     15.3551      2.0000
  5582.0000   1222.6274    178.7044     12.5686    326.0402     12.9675     18.7386     16.2863      0.0000
  5582.5000   1217.0878    177.7544     13.5249    324.5050     16.4570     20.7934     18.6183      0.0000
  5583.0000   1204.4255    160.0877     18.5077    312.2321     23.4978     29.6207     26.9707      0.0000
  5583.5000   1187.0151    151.4665     20.1983    297.0606     26.5158     33.0682     30.0483      0.0000
  5584.0000   1206.7998    150.2582     19.3612    291.6958     26.2725     33.8104     30.3467      0.0000
  5584.5000   1187.8065    146.2427     20.7896    290.5434     28.1009     38.3906     33.1372      0.0000
  5585.0000   1195.7203    144.6381     21.2851    291.1381     27.9224     38.0408     32.4653      0.0000
  5585.5000   1213.9222    141.2431     20.3867    291.3965     26.6732     36.5821     31.3639      0.0000
  5586.0000   1217.8792    133.0407     20.1674    290.8422     25.1668     37.1951     31.0045      0.0000
  5586.5000   1194.1376    136.4766     20.7261    290.6743     25.6528     38.6294     31.2803      0.0000
  5587.0000   1188.5979    146.3969     20.3780    290.5843     25.9570     37.3487     31.0638      0.0000
  5587.5000   1194.9290    139.4026     18.6351    292.2943     24.7764     34.3678     29.1394      0.0000
  5588.0000   1208.3826    130.0208     16.2420    302.0003     22.2101     30.8881     26.3312      0.0000
  5588.5000   1215.5050    138.8587     13.7537    315.6847     19.6896     27.3400     23.4417      0.0000
  5589.0000   1218.6705    149.2599     12.5434    327.3690     16.7255     23.7825     20.4025      0.0000
  5589.5000   1179.1013    153.1348     11.8311    331.5425     14.6167     19.8364     17.3105      0.0000
  5590.0000   1194.1376    147.1754     10.7526    331.9005     12.7134     16.7213     15.1333      0.0000
  5590.5000   1194.1376    138.3650     10.1322    331.8140     10.9957     16.6115     13.6260      0.0000
  5591.0000   1216.2964    130.1888      9.7225    331.7474     10.1645     17.5116     13.6946      0.0000
  5591.5000   1225.0016    115.1415     10.2498    329.8731     11.4246     19.3210     15.3486      0.0000
  5592.0000   1211.5481    117.2104     12.0680    321.8680     14.3744     25.0182     18.2164      0.0000
  5592.5000   1190.9720    129.0946     13.5056    318.2463     12.4476     27.3173     17.8786      0.0000
  5593.0000   1201.2600    124.5436     13.5915    319.3180     13.7733     20.3360     16.3653      0.0000
  5593.5000   1188.5979    112.9380     11.7151    326.8562     15.3344     20.8659     17.2430      0.0000
  5594.0000   1207.5912    115.3412     11.3131    326.9537     15.6172     22.3847     18.1559      0.0000
  5594.5000   1224.2102    126.4864     12.0202    321.3543     14.6938     21.5943     17.8143      0.0000
  5595.0000   1197.3031    131.0433     10.9950    327.8087     11.9712     20.4905     16.5986      0.0000
  5595.5000   1199.6772    123.2721     10.7715    331.9687     12.2295     21.0328     16.3048      0.0000
  5596.0000   1209.1740    123.8563     10.3999    332.4588     12.4886     19.6771     16.6277      0.0000
  5596.5000   1188.5979    139.6742      9.7768    332.6898     11.8687     19.2972     15.6837      0.0000
  5597.0000   1209.1740    143.0436      9.6657    333.2353     10.8083     19.0781     14.8742      0.0000
  5597.5000   1217.8792    131.6329      9.7601    333.7147     10.0558     18.3072     14.3177      0.0000
  5598.0000   1213.1309    129.1311      9.6503    333.4479      9.4560     18.5340     13.6891      0.0000
  5598.5000   1188.5979    122.9914      9.3885    333.3473      9.6491     17.9047     12.7878      0.0000
  5599.0000   1194.9290    112.1181      8.9116    333.3560      9.8181     15.3392     12.5838      0.0000
  5599.5000   1198.0945    116.7842      8.9923    333.0999      9.9454     16.3003     13.2011      0.0000
  5600.0000   1221.0447    121.5967     10.4565    331.2034     12.2124     18.0515     14.8079      0.0000
  5600.5000   1224.2102    124.5199     13.1520    318.3813     14.4290     20.7227     17.1271      0.0000
  5601.0000   1206.7998    126.3597     14.7982    303.6587     17.2072     23.0147     19.2020      0.0000
  5601.5000   1183.0582    127.1580     14.0056    305.9558     17.1064     24.5130     20.3697      0.0000
  5602.0000   1204.4255    120.2121     13.4284    310.9938     17.2298     25.5018     21.0967      0.0000
  5602.5000   1188.5979     97.9981     13.3469    317.3418     16.7704     25.7811     21.1554      0.0000
  5603.0000   1224.2102     95.4657     13.4944    313.9756     15.6729     24.4417     20.8903      0.0000
  5603.5000   1182.2668    106.9184     13.7324    310.3080     16.3320     23.9006     20.5924      0.0000
  5604.0000   1180.6841    110.7932     13.6938    311.9595     15.9729     23.0087     19.9424      0.0000
