~Version Information
VERS.                      2.0: CWLS Log ASCII Standard - VERSION 2.0
WRAP.                       NO: One line per depth step
~Well Information Block
STRT.FT                17.0000: 
STOP.FT             10431.5000: 
STEP.FT                 0.5000: 
NULL.                -999.2500: 
COMP.          WPX ENERGY WILLISTON, LLC: COMPANY
WELL.          OTTER WOMAN 34-27HG: WELL
FLD.                  MANDAREE: FIELD
LOC.           LOT2--247' FNL & 2311' FEL: LOCATION
CNTY.                     DUNN: COUNTY
SRVC.                         : SERVICE COMPANY
DATE.          Fri Jun 15 18-22-46 2018: LOG DATE
UWI.              33-025-03337: UNIQUE WELL ID
STAT.                N. DAKOTA: STATE
~Curve Information Block
DEPT.FT            0 000 00 00: Depth
LTEN.lb                       : Surface Line Tension
GR.GAPI                       : Gamma Ray
AMP3FT.mV                     : AMP3FT Amplitude
TT3FT.usec                    : 3FT Travel Time
AMPMIN.                       : Minimum Sector Amplitude
AMPMAX.                       : Maximum Sector Amplitude
AMPAVG.                       : Average Sector Amplitude
CCL.                          : Casing Collar Locator
~Parameter Information Block
~A  Depth       LTEN         GR        AMP3FT      TT3FT       AMPMIN      AMPMAX      AMPAVG       CCL     
# ...
  2079.5000    553.9072     86.9354     60.7667    286.9879     88.0165    113.8335     99.6694      0.0000
  2080.0000    545.9933     82.6462     61.8537    287.0418     89.1636    113.1307     99.4709      0.0000
  2080.5000    556.2814     78.8506     62.8900    286.9529     88.9222    111.7594     99.1035      0.0000
  2081.0000    563.4038     81.9896     63.6279    286.8135     88.7272    112.9405     99.4424      0.0000
  2081.5000    566.5694     85.5968     62.7272    287.0538     89.0190    112.4959    100.1350      0.0000
  2082.0000    544.4106     82.9725     62.7483    287.2667     89.4056    111.9980     99.3724      0.0000
  2082.5000    558.6555     79.3549     63.0180    287.1696     87.9716    111.5407     99.0722      0.0000
  2083.0000    555.4900     79.1260     61.7139    286.9203     88.7075    110.2163     98.3947      0.0000
  2083.5000    552.3245     74.6883     61.2855    286.8929     88.5953    109.2065     97.3698      0.0000
  2084.0000    564.1952     67.6018     61.2453    287.0090     87.7514    108.4617     97.5398      0.0000
  2084.5000    567.3608     72.7751     60.1355    287.0610     87.3977    107.2853     97.1788      0.0000
  2085.0000    545.9933     78.2192     58.9765    287.0095     86.7732    106.8054     96.4503      0.0000
  2085.5000    558.6555     72.5275     58.8577    287.0726     85.7616    107.8201     96.0818      0.0000
  2086.0000    538.8709     73.3789     58.7058    287.1250     85.2504    105.7161     94.8658      0.0000
  2086.5000    549.9503     79.6476     58.1142    287.3287     85.0392    104.6236     93.5762      0.0000
  2087.0000    571.3177     75.6618     57.6167    287.5297     85.2156    102.5380     92.2827      0.0000
  2087.5000    563.4038     66.0662     57.1652    287.6844     84.6831    101.6031     91.5119      0.0000
  2088.0000    552.3245     61.8296     56.8055    287.5762     85.9016    100.5213     91.8116      0.0000
  2088.5000    561.8210     61.1445     56.9491    287.4508     86.8740     98.8272     91.7550      0.0000
  2089.0000    552.3245     60.4965     57.1524    287.5485     87.2373     98.1861     91.1885      0.0000
  2089.5000    564.1952     58.1257     58.2961    287.5495     84.9392     97.1480     89.9272      0.0000
  2090.0000    568.9435     61.2271     59.1068    287.4077     82.0911     94.3320     88.8907      0.0000
  2090.5000    568.9435     81.4234     56.3303    287.3680     84.0102     94.4328     89.1496      0.0000
  2091.0000    573.6918    103.7440     55.6352    287.5969     86.4796     95.2709     89.9136      0.0000
  2091.5000    562.6124    102.9820     56.1043    287.5940     86.1956     96.1782     90.7315      0.0000
  2092.0000    548.3675     81.9255     56.9934    287.0609     86.1604     98.8337     91.1625      0.0000
  2092.5000    557.0728     66.7706     57.4002    286.8634     86.0891    100.2598     91.7897      0.0000
  2093.0000    562.6124     74.4570     57.0677    287.2551     87.4626     99.1691     91.7126      0.0000
  2093.5000    567.3608     86.5381     56.8446    287.8808     86.6540     96.8959     90.7021      0.0000
  2094.0000    548.3675     83.5207     56.3506    288.0905     84.0781    100.0024     90.8951      0.0000
  2094.5000    557.8641     80.5826     56.1272    288.0544     85.1005    102.6598     91.2537      0.0000
  2095.0000    545.9933     94.9547     56.7104    287.7579     87.6882    100.4751     91.7533      0.0000
  2095.5000    558.6555    116.4417     55.8912    287.5580     86.8379     98.2433     90.5011      0.0000
  2096.0000    573.6918    116.5531     54.2600    287.5781     83.2139     95.0760     87.5966      0.0000
  2096.5000    572.9005    101.4119     53.7224    287.4712     82.9062     93.4995     86.7930      0.0000
  2097.0000    550.7417     89.1596     54.1002    287.5437     83.8614     92.5706     86.9325      0.0000
  2097.5000    569.7349     78.5430     54.5504    287.5139     83.6959     92.6646     87.1124      0.0000
  2098.0000    557.0728     74.2107     55.4477    287.4740     84.8924     95.7828     88.4350      0.0000
  2098.5000    571.3177     77.5105     56.8799    287.3784     86.7033     97.6975     90.2417      0.0000
  2099.0000    577.6487     77.1166     56.7031    287.4747     86.2500     96.9070     90.2246      0.0000
  2099.5000    571.3177     69.0365     56.3533    287.4581     85.6019     97.9808     90.6286      0.0000
  2100.0000    542.0364     67.3303     57.2974    287.4185     85.3539    100.4094     91.7234      0.0000
  2100.5000    564.1952     76.8453     58.8095    287.3314     86.7478     99.4133     92.4229      0.0000
  2101.0000    546.7847     84.4071     58.8523    287.1354     88.9584     97.8880     92.6449      0.0000
  2101.5000    551.5331     87.6119     58.2365    287.1828     88.6134     98.3259     92.5903      0.0000
  2102.0000    575.2746     88.4653     57.9086    287.2123     88.7584     97.3250     93.0837      0.0000
  2102.5000    566.5694     87.1068     57.6030    287.0928     88.7920     97.3630     93.2186      0.0000
  2103.0000    549.9503     85.0762     57.8395    287.0217     88.3618     96.7491     93.0523      0.0000
  2103.5000    563.4038     89.9563     58.8410    286.8548     88.5152     99.7327     93.4373      0.0000
  2104.0000    551.5331     94.1945     59.1946    286.8254     88.9062    102.2340     93.8986      0.0000
  2104.5000    565.7780     85.5604     57.5471    286.8615     88.7916    103.1301     94.3293      0.0000
  2105.0000    568.9435     79.9868     56.3597    286.7659     86.5886    105.8838     95.1544      0.0000
  2105.5000    565.7780     85.1627     59.8318    286.5634     88.5379    104.3998     95.9400      0.0000
  2106.0000    562.6124     88.3313     60.7559    286.7295     90.0950    101.6500     95.7259      0.0000
  2106.5000    570.5263     88.5823     60.4948    286.5984     88.7273    102.1172     95.7259      0.0000
  2107.0000    558.6555     82.8411     60.1700    286.6126     88.4756    102.3669     96.3232      0.0000
  2107.5000    564.9866     73.0228     60.1118    286.8701     91.2692    101.3907     96.9507      0.0000
  2108.0000    573.6918     63.2612     59.8287    286.9258     91.6346    101.0165     96.7204      0.0000
  2108.5000    585.5626     61.6210     60.7867    286.8767     92.3026    101.2243     96.8869      0.0000
  2109.0000    558.6555     72.5282     61.7797    286.9320     92.7948    102.0421     97.1015      0.0000
  2109.5000    562.6124     86.5047     60.9898    286.9238     92.3695    101.1197     97.2221      0.0000
  2110.0000    553.9072     88.4901     60.3687    286.7446     93.4554    101.7458     98.0089      0.0000
  2110.5000    566.5694     73.8864     60.4256    286.6567     94.6753    103.3255     98.3191      0.0000
  2111.0000    570.5263     58.2675     61.1679    286.6927     95.3499    102.4669     98.7142      0.0000
  2111.5000    574.4832     55.8014     61.5841    286.6203     94.9341    102.7188     98.9178      0.0000
  2112.0000    553.9072     63.1145     61.2480    286.5671     95.0288    103.9371     99.4044      0.0000
  2112.5000    558.6555     66.1880     60.6462    286.5850     95.3756    104.1447     99.8161      0.0000
  2113.0000    558.6555     60.5903     60.9314    286.6990     95.7040    105.0168    100.1802      0.0000
  2113.5000    573.6918     59.7319     61.4732    286.7970     95.1475    108.2185    100.9230      0.0000
  2114.0000    576.8574     64.4335     61.5569    286.7991     95.0248    109.2749    101.2352      0.0000
  2114.5000    575.2746     76.9890     61.8854    286.6456     95.6700    107.7810    101.1937      0.0000
  2115.0000    550.7417     83.8783     62.8396    286.3701     97.3445    108.1656    102.3606      0.0000
  2115.5000    572.9005     73.2032     63.9947    286.2425     97.3641    108.3609    102.7426      0.0000
  2116.0000    553.9072     63.4536     64.1362    286.3784     96.9375    108.3134    102.3183      0.0000
  2116.5000    564.9866     63.7683     64.1572    286.4637     96.9703    110.2915    102.2428      0.0000
