~Version Information
VERS.                      2.0: CWLS Log ASCII Standard - VERSION 2.0
WRAP.                       NO: One line per depth step
~Well Information Block
STRT.FT                17.0000: 
STOP.FT             10431.5000: 
STEP.FT                 0.5000: 
NULL.                -999.2500: 
COMP.          WPX ENERGY WILLISTON, LLC: COMPANY
WELL.          OTTER WOMAN 34-27HG: WELL
FLD.                  MANDAREE: FIELD
LOC.           LOT2--247' FNL & 2311' FEL: LOCATION
CNTY.                     DUNN: COUNTY
SRVC.                         : SERVICE COMPANY
DATE.          Fri Jun 15 18-22-46 2018: LOG DATE
UWI.              33-025-03337: UNIQUE WELL ID
STAT.                N. DAKOTA: STATE
~Curve Information Block
DEPT.FT            0 000 00 00: Depth
LTEN.lb                       : Surface Line Tension
GR.GAPI                       : Gamma Ray
AMP3FT.mV                     : AMP3FT Amplitude
TT3FT.usec                    : 3FT Travel Time
AMPMIN.                       : Minimum Sector Amplitude
AMPMAX.                       : Maximum Sector Amplitude
AMPAVG.                       : Average Sector Amplitude
CCL.                          : Casing Collar Locator
~Parameter Information Block
~A  Depth       LTEN         GR        AMP3FT      TT3FT       AMPMIN      AMPMAX      AMPAVG       CCL     
# ...
   692.0000    303.8296     76.8337     55.5568    287.1920     85.4611     95.8744     89.8941      0.0000
   692.5000    303.0382     82.8828     56.0326    287.1898     87.1361     93.9059     90.3064      0.0000
   693.0000    337.0677     77.7881     56.6545    287.1949     88.0506     93.8800     90.8541      0.0000
   693.5000    333.9022     68.3067     57.2624    287.4244     88.8519     95.1852     91.3193      0.0000
   694.0000    305.4124     71.9339     57.4408    287.5739     88.1460     95.4564     91.7271      0.0000
   694.5000    336.2764     89.3345     57.8307    287.3915     86.2395     99.1449     92.3298      0.0000
   695.0000    304.6210     90.9697     57.2695    286.9900     86.1358     97.5589     91.8574      0.0000
   695.5000    310.9521     75.3629     56.3320    287.2297     86.7731     97.2104     91.7035      0.0000
   696.0000    322.0314     62.6116     56.1999    287.4800     86.4778     97.6255     92.2257      0.0000
   696.5000    331.5280     57.1371     56.0974    287.3665     86.8070     97.8465     92.9679      0.0000
   697.0000    310.9521     52.3688     56.3383    287.3140     87.8106    100.6731     93.2772      0.0000
   697.5000    321.2401     51.9662     56.0061    287.4786     87.0428    101.7847     92.2531      0.0000
   698.0000    314.1176     55.2845     54.1682    288.2739     82.2791     93.5564     87.2127      0.0000
   698.5000    318.0745     52.8141     54.4116    290.7826     79.1221     93.3750     87.2709      0.0000
   699.0000    333.1108     47.8008     49.0881    293.8988     73.1338     83.9467     79.0254      0.0000
   699.5000    322.0314     50.8543     38.0861    294.4011     57.8656     64.6154     61.0553      0.0000
   700.0000    303.0382     60.5828     35.8044    294.2503     54.3581     60.6165     57.5018     -2.0000
   700.5000    303.0382     67.4225     35.6885    294.0843     53.2898     59.6174     56.5501      0.0000
   701.0000    306.2037     68.9214     37.4249    294.9651     55.3937     62.6523     58.7912      0.0000
   701.5000    314.9090     71.2062     46.7163    293.4779     69.9690     77.1096     73.3477      0.0000
   702.0000    337.0677     69.7566     48.7887    289.4611     74.0916     83.2497     79.0572      0.0000
   702.5000    322.8228     63.3848     55.5510    287.4631     84.0433     93.6831     89.4507      0.0000
   703.0000    306.2037     55.8928     59.6562    287.1217     89.3452     97.3613     93.5220      0.0000
   703.5000    321.2401     58.7214     59.1753    287.0792     90.3480     99.2912     94.5658      0.0000
   704.0000    305.4124     64.8947     59.3905    286.8281     90.6992    101.0228     95.2470      0.0000
   704.5000    325.1970     64.4223     58.8358    286.5601     89.0448    100.8947     95.0342      0.0000
   705.0000    337.0677     58.9751     58.2262    286.2312     89.4629     99.9469     94.9058      0.0000
   705.5000    324.4056     50.1053     58.7870    286.7658     90.5397     99.2452     94.4139      0.0000
   706.0000    315.7003     55.1637     58.7109    287.0735     89.5333     98.6916     93.4720      0.0000
   706.5000    325.9884     74.9672     58.1287    287.1377     89.6539     98.8580     93.9150      0.0000
   707.0000    310.9521     83.4156     58.4102    287.2427     91.7304    101.1299     95.2673      0.0000
   707.5000    322.8228     86.0598     59.5299    287.1051     92.6338    100.6827     95.4557      0.0000
   708.0000    340.2333     92.3960     59.2349    287.0426     92.0720     98.6511     95.0441      0.0000
   708.5000    339.4419     83.6044     58.6586    287.1621     91.7120     97.3283     94.3545      0.0000
   709.0000    317.2831     66.8539     58.7030    287.1344     92.0117     97.4835     94.8648      0.0000
   709.5000    326.7798     64.1166     59.1156    287.2238     93.0035     98.7872     95.7723      0.0000
   710.0000    309.3693     64.4997     60.7424    287.6051     92.3565     99.5459     96.2860      0.0000
   710.5000    327.5711     63.5266     61.7906    287.3146     92.2589     99.9571     96.2767      0.0000
   711.0000    341.8161     64.4821     60.1313    287.0668     92.0865     97.6253     94.7211      0.0000
   711.5000    344.1902     66.4883     59.1679    287.0494     90.8469     97.9373     94.5344      0.0000
   712.0000    323.6142     63.5995     59.9181    286.9977     92.3438     99.3513     95.2435      0.0000
   712.5000    319.6573     58.7542     60.8016    286.6038     92.1029     99.6543     95.6055      0.0000
   713.0000    314.1176     62.4854     60.4125    286.6193     92.5520     99.1896     95.7946      0.0000
   713.5000    318.8659     62.3777     60.7680    286.9731     93.8253     99.6097     95.9865      0.0000
   714.0000    322.0314     56.5349     60.2799    287.1419     93.9301     98.7932     96.2771      0.0000
   714.5000    333.9022     50.2492     59.2172    287.3737     94.3285    100.4656     96.9018      0.0000
   715.0000    317.2831     49.5181     59.0741    287.3543     94.7122     99.7797     96.8192      0.0000
   715.5000    314.1176     51.4824     59.4818    287.1619     94.7012     98.1019     96.2253      0.0000
   716.0000    306.9951     46.4463     60.0351    287.1101     94.5555     98.1149     96.0354      0.0000
   716.5000    314.9090     37.1188     60.2885    287.1420     95.0158     99.0942     96.5181      0.0000
   717.0000    319.6573     33.8944     60.5956    287.0405     95.1962     99.3598     96.9217      0.0000
   717.5000    335.4850     37.3868     60.1729    286.9755     94.8661     99.1735     96.7954      0.0000
   718.0000    312.5348     48.8795     60.0612    287.0774     94.4329    100.2370     96.7307      0.0000
   718.5000    312.5348     60.4730     60.5796    287.1412     91.6852    103.7762     97.0505      0.0000
   719.0000    313.3262     58.4810     60.6361    287.2352     93.0855    103.0443     97.3730      0.0000
   719.5000    325.9884     48.7429     60.4710    287.0333     94.8929    101.2353     97.0688      0.0000
   720.0000    328.3625     47.6320     59.9659    286.9848     92.9582     98.5113     96.2146      0.0000
   720.5000    330.7367     49.7763     59.8689    287.1217     94.2235     98.7142     95.9350      0.0000
   721.0000    304.6210     46.1064     59.0764    286.6107     88.7525     99.0863     95.8133      0.0000
   721.5000    329.1539     45.2047     58.7997    286.6797     86.5343    100.1542     95.6987      0.0000
   722.0000    329.9453     47.7453     60.8150    287.1259     90.3388    100.3128     95.9412      0.0000
   722.5000    327.5711     47.4061     61.0916    287.1122     94.1930    100.5433     96.7983      0.0000
   723.0000    333.1108     54.1264     60.0562    286.9342     93.2553     99.6478     96.8710      0.0000
   723.5000    339.4419     58.4779     60.0151    286.9431     94.2606     98.3278     96.6599      0.0000
   724.0000    309.3693     54.3930     59.9398    286.9836     94.9544     99.8486     96.7717      0.0000
   724.5000    335.4850     52.9030     58.9266    286.7828     94.1598    101.9827     96.9120      0.0000
   725.0000    321.2401     52.8963     59.2779    286.8286     93.6903    100.3493     97.4796      0.0000
   725.5000    343.3988     56.2724     60.2376    287.0514     95.2369    100.4454     97.8497      0.0000
   726.0000    351.3127     65.3022     59.5545    287.2909     94.5038     99.5494     97.2526      0.0000
   726.5000    334.6936     65.6308     59.8926    287.1322     94.2240     98.9698     96.6624      0.0000
   727.0000    314.9090     52.3667     60.6719    287.1053     94.1452    101.0628     97.4221      0.0000
   727.5000    335.4850     43.0406     59.8359    286.8444     95.6799    100.9141     98.0147      0.0000
   728.0000    322.8228     39.5471     60.1476    286.9252     96.0661    100.7784     98.0348      0.0000
   728.5000    338.6505     45.8854     59.8520    287.2254     95.3447     99.9417     96.9196      0.0000
   729.0000    337.8591     59.3182     59.9879    287.3379     94.7088     98.7800     96.2978      0.0000
