~Version Information
VERS.                      2.0: CWLS Log ASCII Standard - VERSION 2.0
WRAP.                       NO: One line per depth step
~Well Information Block
STRT.FT             10330.5000: 
STOP.FT                16.5000: 
STEP.FT                -0.5000: 
NULL.                -999.2500: 
COMP.          WPX ENERGY WILLISTON, LLC: COMPANY
WELL.          OTTER WOMAN 34-27HP: WELL
FLD.                  MANDAREE: FIELD
LOC.           LOT2--249' FNL & 2281' FEL: LOCATION
CNTY.                     DUNN: COUNTY
SRVC.                         : SERVICE COMPANY
DATE.          Fri Jun 15 11-35-34 2018: LOG DATE
UWI.              33-025-03338: UNIQUE WELL ID
STAT.                       ND: STATE
~Curve Information Block
DEPT.FT            0 000 00 00: Depth
LTEN.lb                       : Surface Line Tension
GR.GAPI                       : Gamma Ray
AMP3FT.mV                     : AMP3FT Amplitude
TT3FT.usec                    : 3FT Travel Time
CCL.                          : Casing Collar Locator
AMPMIN.                       : Minimum Sector Amplitude
AMPMAX.                       : Maximum Sector Amplitude
AMPAVG.                       : Average Sector Amplitude
~Parameter Information Block
~A  Depth       LTEN         GR        AMP3FT      TT3FT        CCL        AMPMIN      AMPMAX      AMPAVG   
# ...
  4180.5000    977.8084    145.2546      6.6345    345.7042      0.0000      7.9822      9.6529      8.6553
  4180.0000    991.4442    142.0491      6.8295    344.7382      0.0000      8.5623     10.0182      9.2514
  4179.5000    989.0378    145.6589      7.3952    343.8157      0.0000      9.1002     11.3823     10.1360
  4179.0000    991.4442    149.6724      8.1662    342.8198      0.0000      9.8789     13.3089     11.2167
  4178.5000    976.2042    143.7871      8.8166    341.6556      0.0000     10.9625     14.1885     12.3478
  4178.0000    988.2358    139.7639      9.1789    340.7521      0.0000     11.4587     14.3517     12.8833
  4177.5000    964.9748    147.9647      8.8490    340.9485      0.0000     11.2477     13.9176     12.3135
  4177.0000    983.4232    169.3408      8.2900    342.3033      0.0000     10.4125     12.8298     11.2221
  4176.5000    976.2042    183.9433      7.6980    343.6252      0.0000      9.5387     11.5644     10.3278
  4176.0000    977.0063    177.4543      7.0416    344.7650      0.0000      8.4982     10.1812      9.3877
  4175.5000    972.9958    160.3628      6.6735    345.5981      0.0000      7.7773      9.4051      8.6059
  4175.0000    977.8084    143.5514      6.5317    346.4006      0.0000      6.9869      8.7624      7.8549
  4174.5000    976.2042    130.2085      6.1661    347.1706      0.0000      6.7866      7.9709      7.2708
  4174.0000    997.0589    123.9183      6.0616    347.2867      0.0000      6.9611      7.8355      7.2659
  4173.5000    992.2463    124.6355      5.9858    347.3868      0.0000      6.5271      7.8909      7.4741
  4173.0000    989.8400    124.6457      5.8160    349.8970      0.0000      6.4713      8.2394      7.4808
  4172.5000    973.7979    121.8095      5.5544    365.6656      0.0000      5.9907      7.7651      6.9793
  4172.0000    985.8295    131.8950      5.4253    388.9633      0.0000      5.5423      7.4129      6.6168
  4171.5000    962.5685    146.2104      5.2107    408.0457      0.0000      5.8876      7.2859      6.5316
  4171.0000    981.8190    146.1120      5.1616    446.0669      0.0000      5.6850      7.0065      6.3659
  4170.5000    985.0273    139.5178      5.1817    470.5382      0.0000      5.5571      6.9345      6.2445
  4170.0000    980.2147    130.1431      5.3776    470.2409      0.0000      6.0225      7.1939      6.5167
  4169.5000    972.9958    127.1421      5.8976    443.9322      0.0000      5.9735      7.4570      6.7440
  4169.0000    985.0273    138.6567      6.0604    405.0941      0.0000      6.4816      8.0240      7.1726
  4168.5000    973.7979    141.1618      5.9941    394.0068      0.0000      6.2600      8.4275      7.3571
  4168.0000    985.0273    122.8946      6.0761    387.8107      0.0000      6.5142      8.6250      7.5943
  4167.5000    985.8295    117.3412      6.2421    365.0351      0.0000      7.0745      8.6450      7.9940
  4167.0000    983.4232    127.5009      6.2895    348.6053      0.0000      7.0610      8.6151      8.0456
  4166.5000    964.9748    143.2803      6.5715    345.4348      0.0000      7.9307      8.9238      8.5006
  4166.0000    957.7559    160.3379      6.8169    345.0208      0.0000      8.5992      9.4421      9.0054
  4165.5000    960.9643    170.1101      6.7953    345.2736      0.0000      8.6034      9.8940      9.1741
  4165.0000    985.0273    166.3269      6.8002    345.6848      0.0000      8.1750      9.6133      8.8803
  4164.5000    981.8190    152.2135      6.4907    346.1932      0.0000      7.6978      9.1194      8.4514
  4164.0000    969.7874    144.1836      6.0692    350.8588      0.0000      7.5184      8.8899      8.2691
  4163.5000    960.9643    139.1186      6.0721    358.6819      0.0000      7.5158      8.6019      8.1500
  4163.0000    974.6000    136.7354      5.8456    351.8102      0.0000      6.6245      8.0886      7.5944
  4162.5000    968.9853    141.2241      6.0499    345.8335      0.0000      6.7032      8.4599      7.8295
  4162.0000    990.6421    145.5514      6.5960    344.5548      0.0000      8.1392      9.3257      8.7187
  4161.5000    981.0168    147.9193      6.6424    344.3712      0.0000      8.0153      9.5082      8.6804
  4161.0000    983.4232    152.5235      6.7519    344.3340      0.0000      7.7221      9.8512      8.7286
  4160.5000    968.9853    160.2825      6.8342    344.2092      0.0000      7.6283      9.8419      8.7371
  4160.0000    978.6105    161.0481      6.8699    343.9419      0.0000      7.4614      9.9273      8.8715
  4159.5000    959.3600    168.9786      6.8409    344.1230      0.0000      7.6466      9.9423      8.9875
  4159.0000    988.2358    175.0562      6.7022    344.8194      0.0000      8.1422     10.0741      8.9046
  4158.5000    977.8084    164.9461      6.7326    344.8133      0.0000      8.4645     10.6289      9.0439
  4158.0000    971.3916    152.4246      6.7348    344.2822      0.0000      8.7627     10.0284      9.1394
  4157.5000    966.5790    149.1220      6.6080    344.0449      0.0000      8.9405      9.5506      9.2324
  4157.0000    981.0168    154.1784      6.4372    344.2157      0.0000      8.5064      9.5572      8.9514
  4156.5000    967.3811    150.6606      6.5921    344.4566      0.0000      8.2210      9.6472      8.8506
  4156.0000    981.0168    148.4987      6.8767    346.8272      0.0000      8.3336      9.5201      9.0294
  4155.5000    985.8295    156.9120      6.9218    362.2929      0.0000      8.3347      9.4187      8.8922
  4155.0000    981.8190    147.8450      7.5631    383.4933      0.0000      8.5219      9.8988      9.1328
  4154.5000    966.5790    127.0215      7.4517    390.0324      0.0000      7.8828      9.8346      8.6746
  4154.0000    977.8084    122.1617      5.9400    366.3686      0.0000      6.5836      8.6110      7.3100
  4153.5000    967.3811    127.5091      5.8693    353.5580      0.0000      6.2881      8.1073      7.0842
  4153.0000    981.0168    131.5331      5.8940    355.3896      2.0000      5.7208      8.1725      6.9085
  4152.5000    970.5895    131.9994      6.4014    371.9591      0.0000      5.3151      8.1559      6.6769
  4152.0000    970.5895    121.4376      7.2137    384.4909      0.0000      6.2918      8.9683      7.2670
  4151.5000    965.7769    119.5246      6.8705    367.0964      0.0000      7.0414      9.8500      8.2010
  4151.0000    976.2042    144.5448      7.0988    347.9940      0.0000      8.0112     10.9665      9.3101
  4150.5000    964.9748    163.0911      7.3186    344.6098      0.0000      8.6015     11.4647      9.8620
  4150.0000    978.6105    152.4469      7.5151    344.4767      0.0000      8.7662     11.7186     10.0454
  4149.5000    977.0063    144.4226      7.4415    344.4893      0.0000      8.3018     11.4433      9.7537
  4149.0000    972.1937    156.8805      7.4341    344.2536      0.0000      8.0609     11.4811      9.7295
  4148.5000    965.7769    162.7910      7.2752    344.2867      0.0000      8.3548     11.3568      9.8116
  4148.0000    969.7874    159.1399      7.0240    345.0125      0.0000      8.5038     10.7263      9.6710
  4147.5000    960.9643    170.7034      6.8047    346.0420      0.0000      8.3874     10.2546      9.1619
  4147.0000    984.2253    181.4836      6.4814    346.7780      0.0000      7.4753      9.5857      8.4328
  4146.5000    979.4127    180.5842      6.3586    346.4349      0.0000      7.4200      8.9916      8.1721
  4146.0000    988.2358    172.4508      6.3343    345.7282      0.0000      7.7534      9.0776      8.4286
  4145.5000    975.4021    168.9496      6.1468    345.5786      0.0000      7.9740      9.2457      8.7120
  4145.0000    972.9958    174.2893      6.4629    345.5965      0.0000      7.9644      9.4891      8.9352
  4144.5000    958.5580    177.0017      6.8361    345.6460      0.0000      8.2456      9.8077      9.0257
  4144.0000    977.0063    168.4333      6.8546    345.5473      0.0000      7.5911     10.3685      8.8906
  4143.5000    983.4232    156.2321      6.6888    345.2572      0.0000      7.3531     10.3639      8.5980
