~Version Information
VERS.                      2.0: CWLS Log ASCII Standard - VERSION 2.0
WRAP.                       NO: One line per depth step
~Well Information Block
STRT.FT                17.0000: 
STOP.FT             10431.5000: 
STEP.FT                 0.5000: 
NULL.                -999.2500: 
COMP.          WPX ENERGY WILLISTON, LLC: COMPANY
WELL.          OTTER WOMAN 34-27HG: WELL
FLD.                  MANDAREE: FIELD
LOC.           LOT2--247' FNL & 2311' FEL: LOCATION
CNTY.                     DUNN: COUNTY
SRVC.                         : SERVICE COMPANY
DATE.          Fri Jun 15 18-22-46 2018: LOG DATE
UWI.              33-025-03337: UNIQUE WELL ID
STAT.                N. DAKOTA: STATE
~Curve Information Block
DEPT.FT            0 000 00 00: Depth
LTEN.lb                       : Surface Line Tension
GR.GAPI                       : Gamma Ray
AMP3FT.mV                     : AMP3FT Amplitude
TT3FT.usec                    : 3FT Travel Time
AMPMIN.                       : Minimum Sector Amplitude
AMPMAX.                       : Maximum Sector Amplitude
AMPAVG.                       : Average Sector Amplitude
CCL.                          : Casing Collar Locator
~Parameter Information Block
~A  Depth       LTEN         GR        AMP3FT      TT3FT       AMPMIN      AMPMAX      AMPAVG       CCL     
# ...
  9729.5000   2051.9988     46.0548     16.3169    302.2209     15.7826     32.0779     23.2156      0.0000
  9730.0000   2055.1643     38.6296     15.7504    299.2099     16.9465     32.1320     24.0112      2.0000
  9730.5000   2047.2505     41.4527     16.0336    302.8075     17.6972     32.6970     24.7306      0.0000
  9731.0000   2053.5815     48.8503     21.8311    307.8823     27.0300     43.7822     34.8271      0.0000
  9731.5000   2070.9919     56.2554     28.7742    298.1953     38.1254     55.7362     46.0419      0.0000
  9732.0000   2057.5386     62.8655     30.8746    289.8917     40.5943     59.3206     49.0157      0.0000
  9732.5000   2037.7539     66.4777     32.9729    287.6258     43.3584     64.0074     52.6177      0.0000
  9733.0000   2036.1711     68.4443     33.5556    287.2890     45.6790     64.6649     53.9468      0.0000
  9733.5000   2032.2142     67.8238     32.1791    287.1264     45.1576     62.4767     52.6948      0.0000
  9734.0000   2040.1281     72.2764     29.9100    286.9564     42.0027     61.6107     50.5452      0.0000
  9734.5000   2051.2075     77.4347     28.8510    286.4602     39.8781     61.7192     49.9044      0.0000
  9735.0000   2051.9988     76.8921     29.9560    287.0110     38.7653     62.4669     50.0728      0.0000
  9735.5000   2044.0850     73.1620     30.7373    287.3716     38.1722     62.3228     50.1138      0.0000
  9736.0000   2047.2505     58.6336     31.1077    287.4755     39.4459     62.7007     50.7600      0.0000
  9736.5000   2044.0850     47.4035     31.3906    287.3526     41.1254     63.9143     51.7417      0.0000
  9737.0000   2055.1643     47.9025     32.1477    287.1733     42.6492     64.9056     52.8220      0.0000
  9737.5000   2069.4092     56.1735     32.3288    287.4094     44.4931     63.1053     52.8800      0.0000
  9738.0000   2068.6179     64.0686     32.0739    287.4687     44.9393     62.4470     52.9431      0.0000
  9738.5000   2045.6677     69.1453     32.6650    287.2780     46.8184     62.9578     54.1280      0.0000
  9739.0000   2040.1281     74.2567     34.1930    287.2340     48.1859     65.0228     56.0088      0.0000
  9739.5000   2034.5884     76.0120     35.7286    287.1980     50.6250     66.5722     57.6346      0.0000
  9740.0000   2048.8333     74.1276     36.0300    287.3657     51.2721     66.3810     57.8768      0.0000
  9740.5000   2048.0420     82.2373     34.9730    287.5666     50.0232     64.3454     56.4786      0.0000
  9741.0000   2044.0850     94.1456     33.4511    287.4263     48.4336     61.2259     54.1745      0.0000
  9741.5000   2043.2936     97.4453     32.4695    287.0363     47.8289     59.6482     53.1730      0.0000
  9742.0000   2044.8763     83.0921     32.1130    287.2155     48.6990     59.1952     53.1295      0.0000
  9742.5000   2040.1281     68.6450     31.7939    287.2942     48.3916     58.3657     52.7673      0.0000
  9743.0000   2047.2505     70.6830     31.5021    287.2456     45.9860     57.7283     51.7456      0.0000
  9743.5000   2051.9988     70.1292     30.7839    287.4380     42.6866     58.2631     50.0604      0.0000
  9744.0000   2057.5386     53.6643     30.7142    287.2562     43.1706     58.2465     49.9672      0.0000
  9744.5000   2053.5815     40.5821     30.9623    287.2728     43.8044     56.9526     50.0500      0.0000
  9745.0000   2044.8763     46.7000     31.1005    287.1700     44.4930     55.5661     50.1775      0.0000
  9745.5000   2045.6677     56.8592     30.9248    286.9580     44.0910     55.1773     49.8563      0.0000
  9746.0000   2048.0420     56.7415     30.2939    287.1362     42.2301     56.4355     49.1743      0.0000
  9746.5000   2048.0420     45.7738     28.8396    287.5199     40.1552     56.2513     47.5729      0.0000
  9747.0000   2048.0420     42.8508     27.9527    287.5564     38.6657     53.5028     45.3881      0.0000
  9747.5000   2047.2505     56.9637     27.8892    287.3380     38.0876     52.6333     44.8705      0.0000
  9748.0000   2048.0420     69.1652     27.3389    287.2726     37.4839     52.7899     44.9519      0.0000
  9748.5000   2047.2505     76.4156     27.7091    287.4466     38.4323     52.0117     45.2035      0.0000
  9749.0000   2050.4160     74.1919     28.9479    287.4305     40.2630     52.7714     46.9244      0.0000
  9749.5000   2056.7471     64.9386     30.3997    287.1805     42.7506     54.9045     49.3573      0.0000
  9750.0000   2062.2869     65.1513     30.9307    287.1933     44.2338     56.9661     50.6768      0.0000
  9750.5000   2048.0420     68.3723     32.0695    287.1110     44.7416     60.3114     52.6693      0.0000
  9751.0000   2048.0420     63.2657     33.1927    287.1997     45.7063     62.4994     53.9350      0.0000
  9751.5000   2048.0420     58.0913     33.2401    287.3132     46.0965     61.1791     53.5230      0.0000
  9752.0000   2048.0420     59.8847     33.1977    287.0594     46.8020     58.4383     53.0281      0.0000
  9752.5000   2049.6248     61.7169     32.1675    287.2152     45.9111     56.8073     51.2669      0.0000
  9753.0000   2058.3298     61.5202     30.0309    287.7815     42.8114     56.2204     48.3547      0.0000
  9753.5000   2039.3367     50.1403     28.1842    288.1178     38.9241     54.2389     45.6555      0.0000
  9754.0000   2038.5453     35.4290     28.1461    287.8301     38.3236     53.4594     45.6766      0.0000
  9754.5000   2036.9625     41.8591     28.2280    287.6607     40.3288     51.9345     46.2600      0.0000
  9755.0000   2050.4160     56.8630     28.3156    287.9295     42.2857     51.5037     47.0409      0.0000
  9755.5000   2064.6609     60.6204     28.3255    288.0728     41.5364     51.7661     46.8989      0.0000
  9756.0000   2053.5815     64.3792     28.4057    287.9869     39.9015     53.0910     46.0220      0.0000
  9756.5000   2051.9988     84.1908     29.2703    287.9648     39.5526     54.7285     46.8408      0.0000
  9757.0000   2051.2075    103.7209     31.1601    287.8584     42.6792     57.5201     50.0542      0.0000
  9757.5000   2048.0420     94.7004     33.2175    287.6902     46.6716     62.0480     53.7196      0.0000
  9758.0000   2055.1643     72.9890     34.5915    287.5877     47.7708     64.1399     55.3253      0.0000
  9758.5000   2063.0781     61.1613     34.4091    287.5646     45.1470     63.8791     54.0943      0.0000
  9759.0000   2057.5386     53.9753     32.5888    287.6238     42.6477     61.8078     52.0029      0.0000
  9759.5000   2054.3730     43.6193     31.7431    287.8775     42.9305     60.5611     51.4246      0.0000
  9760.0000   2050.4160     39.6627     31.2133    288.2937     43.4608     59.5984     50.7855      0.0000
  9760.5000   2043.2936     49.7996     30.4658    288.6476     41.9073     59.7622     49.8062      0.0000
  9761.0000   2048.8333     60.5899     30.4442    288.8143     41.0450     59.9422     49.3594      0.0000
  9761.5000   2050.4160     65.6044     30.9255    288.5154     41.3335     59.5406     49.5885      0.0000
  9762.0000   2047.2505     67.5496     30.9768    288.2921     42.0855     60.3885     50.2865      0.0000
  9762.5000   2047.2505     60.3772     31.4639    288.1804     43.1430     60.4996     51.3556      0.0000
  9763.0000   2056.7471     54.4600     32.1775    288.0483     41.1489     59.6417     50.4184      0.0000
  9763.5000   2059.1213     54.4146     30.8489    288.4527     40.9763     57.6985     48.6064      0.0000
  9764.0000   2056.7471     57.7435     29.8289    288.9124     41.2917     57.3742     48.7263      0.0000
  9764.5000   2066.2437     66.1969     30.4465    288.6332     40.3486     58.5481     49.4823      0.0000
  9765.0000   2055.9558     70.9480     31.2130    288.3228     40.9113     59.6358     50.1150      0.0000
  9765.5000   2059.1213     67.0704     31.5140    288.3797     42.3689     60.2377     50.8183      0.0000
  9766.0000   2051.9988     61.3432     31.1439    288.6465     42.4206     59.2081     50.2200      0.0000
  9766.5000   2051.2075     60.8041     30.4984    288.9810     41.1503     58.4962     48.7871      0.0000
