~Version Information
VERS.                      2.0: CWLS Log ASCII Standard - VERSION 2.0
WRAP.                       NO: One line per depth step
~Well Information Block
STRT.FT                17.0000: 
STOP.FT             10431.5000: 
STEP.FT                 0.5000: 
NULL.                -999.2500: 
COMP.          WPX ENERGY WILLISTON, LLC: COMPANY
WELL.          OTTER WOMAN 34-27HG: WELL
FLD.                  MANDAREE: FIELD
LOC.           LOT2--247' FNL & 2311' FEL: LOCATION
CNTY.                     DUNN: COUNTY
SRVC.                         : SERVICE COMPANY
DATE.          Fri Jun 15 18-22-46 2018: LOG DATE
UWI.              33-025-03337: UNIQUE WELL ID
STAT.                N. DAKOTA: STATE
~Curve Information Block
DEPT.FT            0 000 00 00: Depth
LTEN.lb                       : Surface Line Tension
GR.GAPI                       : Gamma Ray
AMP3FT.mV                     : AMP3FT Amplitude
TT3FT.usec                    : 3FT Travel Time
AMPMIN.                       : Minimum Sector Amplitude
AMPMAX.                       : Maximum Sector Amplitude
AMPAVG.                       : Average Sector Amplitude
CCL.                          : Casing Collar Locator
~Parameter Information Block
~A  Depth       LTEN         GR        AMP3FT      TT3FT       AMPMIN      AMPMAX      AMPAVG       CCL     
# ...
  1404.5000    425.7029     77.4635     56.7382    287.4635     88.5182     95.9699     92.4181      0.0000
  1405.0000    439.9478     72.9403     54.7445    286.7267     87.5624     96.1208     91.8189      0.0000
  1405.5000    433.6167     71.5337     54.5307    286.9191     87.3912     94.7202     91.4231      0.0000
  1406.0000    443.9047     83.0511     55.0915    287.1351     85.8477     93.0266     90.2518      0.0000
  1406.5000    450.2358     85.7175     54.8408    287.2303     85.5101     92.5807     89.5666      0.0000
  1407.0000    447.0703     74.6019     55.7828    287.1731     85.7807     92.9945     89.5614      0.0000
  1407.5000    428.8684     67.0157     56.8402    287.0957     85.7216     93.1820     89.9364      0.0000
  1408.0000    443.1133     74.6809     56.7894    287.2590     86.3894     94.0963     90.4238      0.0000
  1408.5000    434.4081     75.7556     56.2370    287.2578     86.6948     94.0954     90.2457      0.0000
  1409.0000    448.6530     61.3915     56.4963    287.1438     86.1025     94.4061     90.2412      0.0000
  1409.5000    446.2789     56.3917     57.6104    287.1337     84.9256     95.7264     90.6045      0.0000
  1410.0000    452.6100     54.3038     58.1230    287.1236     85.0415     95.8989     90.8104      0.0000
  1410.5000    430.4512     56.9958     56.7002    287.2693     85.6640     93.9333     89.9981      0.0000
  1411.0000    439.9478     72.1823     55.9715    287.4043     85.6606     93.2781     89.7837      0.0000
  1411.5000    435.1995     85.0799     56.2535    287.6866     83.8535     94.2022     89.2421      0.0000
  1412.0000    447.0703     88.7152     55.7261    287.6611     84.1162     94.7478     89.2252      0.0000
  1412.5000    456.5669     78.3186     55.1609    287.2986     85.3347     94.4965     89.8889      0.0000
  1413.0000    455.7755     62.7300     55.5052    287.3199     85.6041     95.0695     90.4233      0.0000
  1413.5000    430.4512     53.9017     56.6338    287.3488     83.9406     97.4453     90.3834      0.0000
  1414.0000    431.2426     55.6707     56.7168    287.1588     83.4512     95.9807     90.1433      0.0000
  1414.5000    430.4512     63.5350     56.9035    287.1482     85.0951     96.8433     90.5133      0.0000
  1415.0000    437.5736     71.0704     56.6724    287.2306     83.4507     97.5007     90.5120      0.0000
  1415.5000    442.3219     81.9473     56.1029    287.2608     83.5223     95.7946     89.9427      0.0000
  1416.0000    448.6530     84.6788     56.2580    287.2577     84.1035     95.7168     90.0228      0.0000
  1416.5000    439.1564     74.3666     56.4606    287.2146     84.6873     97.0116     90.4627      0.0000
  1417.0000    435.9909     66.9458     56.5995    287.2359     86.0092     99.4107     91.0196      0.0000
  1417.5000    432.0339     70.3964     56.2819    287.1844     84.5190     99.2117     90.8883      0.0000
  1418.0000    444.6961     68.9133     56.1170    287.2291     84.3250     98.0209     90.7019      0.0000
  1418.5000    447.8616     59.9135     56.3860    287.2983     84.5455     97.4372     90.8278      0.0000
  1419.0000    436.7823     59.4580     56.4731    287.2070     85.9460     96.2540     90.7854      0.0000
  1419.5000    434.4081     61.6342     56.0543    287.2245     85.7226     96.6027     90.5907      0.0000
  1420.0000    431.2426     57.0367     57.1630    287.4623     86.1206     96.7441     91.1468      0.0000
  1420.5000    431.2426     55.3780     57.4887    287.4563     85.0656     96.6019     90.8211      0.0000
  1421.0000    442.3219     66.3756     57.2408    287.2780     84.0213     97.4245     90.5058      0.0000
  1421.5000    448.6530     76.7017     57.2837    287.3028     83.3443     98.0140     90.7973      0.0000
  1422.0000    439.1564     82.9354     57.1364    287.2347     83.5401     96.3268     91.0871      0.0000
  1422.5000    433.6167     77.7733     56.1772    287.2255     84.1515     96.1890     90.9768      0.0000
  1423.0000    441.5305     66.8605     56.9388    287.3020     84.4730     96.5971     91.1423      0.0000
  1423.5000    424.1201     69.8246     56.8875    287.2626     84.0599     96.0213     90.8060      0.0000
  1424.0000    442.3219     69.8519     56.8880    287.2248     86.1353     95.1005     90.4091      0.0000
  1424.5000    456.5669     68.2195     57.0326    287.1846     86.2349     95.7134     90.7769      0.0000
  1425.0000    440.7392     78.4893     56.8666    287.2178     85.6074     96.4397     91.0921      0.0000
  1425.5000    435.1995     80.9876     56.8473    287.2391     84.7480     96.6847     90.9504      0.0000
  1426.0000    446.2789     75.6057     56.8281    287.2199     84.6455     95.5263     90.5657      0.0000
  1426.5000    427.2856     70.1243     57.0322    287.1324     85.4129     95.4256     90.7955      0.0000
  1427.0000    450.2358     58.4131     56.9885    287.1487     85.8009     97.0202     91.7701      0.0000
  1427.5000    449.4444     43.5837     56.9182    287.1590     85.4749     97.6999     91.7135      0.0000
  1428.0000    444.6961     34.8512     57.3440    287.1526     86.0287     97.3789     91.1965      0.0000
  1428.5000    431.2426     35.2032     58.3595    287.1573     86.8003     96.8068     91.0354      0.0000
  1429.0000    454.1927     39.1324     57.6321    287.0359     86.4360     96.9653     91.3441      0.0000
  1429.5000    435.9909     44.4495     56.1690    286.7671     86.5778     99.5968     91.8437      0.0000
  1430.0000    450.2358     51.1565     55.1852    286.7634     85.5046    100.6160     91.8404      0.0000
  1430.5000    451.0272     56.1721     55.1271    286.9185     84.4452     98.7570     91.6427      0.0000
  1431.0000    448.6530     52.9699     56.6749    287.0552     84.4769     98.9963     91.7361      0.0000
  1431.5000    433.6167     52.2838     56.7937    287.0918     84.5710     98.3846     91.3176      0.0000
  1432.0000    447.8616     56.9646     56.5176    287.3123     83.9254     98.2516     90.5802      0.0000
  1432.5000    439.1564     64.0956     57.0800    287.1827     84.3458     99.6060     91.1865      0.0000
  1433.0000    454.1927     73.5917     56.6804    287.0992     83.1617     98.7866     90.6410      0.0000
  1433.5000    456.5669     77.0073     51.8220    287.5333     77.3398     89.5568     84.0736      0.0000
  1434.0000    452.6100     72.2341     48.1307    291.3758     72.5496     82.7482     77.9042      0.0000
  1434.5000    433.6167     75.6413     43.1903    295.4101     62.1115     71.5256     67.7923      0.0000
  1435.0000    430.4512     85.3587     35.9484    294.7207     49.9457     61.3335     56.3079      0.0000
  1435.5000    435.9909     80.3697     34.6274    294.2780     50.3309     62.9328     56.0174     -2.0000
  1436.0000    450.2358     69.9029     33.3328    295.0159     49.8984     60.2891     54.1180      0.0000
  1436.5000    443.9047     77.7834     34.6524    296.3213     51.5217     59.3037     55.5069      0.0000
  1437.0000    456.5669     98.2925     43.8630    293.2889     65.6731     73.7187     70.1812      0.0000
  1437.5000    446.2789    101.6151     50.1198    288.5372     74.5944     84.8349     79.9423      0.0000
  1438.0000    432.0339     85.3189     56.8113    287.2775     84.0947     98.1444     90.5771      0.0000
  1438.5000    433.6167     72.0569     57.7381    287.0298     86.3346    102.4895     93.0138      0.0000
  1439.0000    450.2358     65.1916     57.7535    286.9976     86.5019    101.7749     93.0655      0.0000
  1439.5000    451.0272     58.5977     57.1444    287.2939     86.0245     99.5567     92.8336      0.0000
  1440.0000    451.0272     58.1852     57.1271    287.5863     86.7796    102.0760     92.6238      0.0000
  1440.5000    441.5305     67.0494     57.4854    287.4901     86.9239    100.1593     92.3422      0.0000
  1441.0000    441.5305     77.2871     56.2761    287.4570     86.0092    100.1581     92.1551      0.0000
  1441.5000    442.3219     72.3200     55.8281    287.4798     85.8574     99.4101     92.0989      0.0000
