~Version Information
VERS.                      2.0: CWLS Log ASCII Standard - VERSION 2.0
WRAP.                       NO: One line per depth step
~Well Information Block
STRT.FT                17.0000: 
STOP.FT             10431.5000: 
STEP.FT                 0.5000: 
NULL.                -999.2500: 
COMP.          WPX ENERGY WILLISTON, LLC: COMPANY
WELL.          OTTER WOMAN 34-27HG: WELL
FLD.                  MANDAREE: FIELD
LOC.           LOT2--247' FNL & 2311' FEL: LOCATION
CNTY.                     DUNN: COUNTY
SRVC.                         : SERVICE COMPANY
DATE.          Fri Jun 15 18-22-46 2018: LOG DATE
UWI.              33-025-03337: UNIQUE WELL ID
STAT.                N. DAKOTA: STATE
~Curve Information Block
DEPT.FT            0 000 00 00: Depth
LTEN.lb                       : Surface Line Tension
GR.GAPI                       : Gamma Ray
AMP3FT.mV                     : AMP3FT Amplitude
TT3FT.usec                    : 3FT Travel Time
AMPMIN.                       : Minimum Sector Amplitude
AMPMAX.                       : Maximum Sector Amplitude
AMPAVG.                       : Average Sector Amplitude
CCL.                          : Casing Collar Locator
~Parameter Information Block
~A  Depth       LTEN         GR        AMP3FT      TT3FT       AMPMIN      AMPMAX      AMPAVG       CCL     
# ...
  3467.0000    798.4451    150.6836     17.7005    292.1611     22.0965     35.1050     28.3741      0.0000
  3467.5000    806.3590    126.5201     18.0115    292.0071     21.8343     34.7995     27.7934      0.0000
  3468.0000    802.4020    124.3872     17.7239    292.3845     21.8129     34.8514     27.5749      0.0000
  3468.5000    811.8987    141.9523     17.2220    292.8330     21.4982     35.2607     27.5869      0.0000
  3469.0000    813.4814    154.4099     17.2740    292.7719     21.0062     35.7655     27.4707      0.0000
  3469.5000    823.7695    163.8059     17.4911    294.0461     21.3344     34.7605     27.3183      0.0000
  3470.0000    798.4451    164.8980     16.6696    301.6415     20.9550     34.0067     27.1999      0.0000
  3470.5000    811.8987    156.1671     16.3769    301.5409     20.1257     34.5851     27.2709      0.0000
  3471.0000    806.3590    156.0141     16.7547    294.2865     19.2674     34.5688     27.2767      0.0000
  3471.5000    816.6470    152.0878     17.0711    292.9176     20.5784     34.6617     27.2293      0.0000
  3472.0000    831.6833    141.9512     17.0456    292.7141     19.1662     34.1249     27.1204      0.0000
  3472.5000    831.6833    146.1133     16.5826    293.1103     19.5899     34.2871     26.4515      0.0000
  3473.0000    807.1504    166.5841     15.9561    293.9604     19.4099     34.0028     25.8206      0.0000
  3473.5000    819.8126    184.3936     15.2542    294.8242     19.1758     32.1860     24.6827      0.0000
  3474.0000    790.5313    189.4138     14.9402    295.1133     19.0475     30.1873     23.8805      0.0000
  3474.5000    803.1935    196.1558     15.0598    294.7897     18.3414     29.7741     23.4907      0.0000
  3475.0000    825.3522    190.9844     15.2247    294.6730     18.2492     29.3292     23.1892      0.0000
  3475.5000    825.3522    166.3591     15.1377    294.6400     18.7094     28.7222     23.0844      0.0000
  3476.0000    803.9849    154.9211     15.0967    294.4541     18.7059     28.9885     23.0070      0.0000
  3476.5000    822.9781    149.8606     15.1879    294.2281     19.6010     29.2509     23.7863      0.0000
  3477.0000    797.6537    150.0114     15.7235    293.6771     20.3185     30.1518     24.5953      0.0000
  3477.5000    807.1504    166.3979     17.0151    291.8711     20.6486     30.8279     25.2677      0.0000
  3478.0000    825.3522    177.3347     17.4518    291.3344     20.1117     31.3044     25.6037      0.0000
  3478.5000    821.3953    170.0023     17.3457    292.0183     20.5131     32.5004     26.1206      0.0000
  3479.0000    808.7332    162.5304     17.7906    291.9805     21.3168     32.6490     26.8524      0.0000
  3479.5000    818.2297    173.3869     19.1880    291.8518     22.9016     33.2770     28.6734      0.0000
  3480.0000    799.2365    190.6601     20.7984    291.1556     25.3844     36.5938     31.6300      0.0000
  3480.5000    805.5676    186.8898     22.2128    290.2693     29.8347     40.8913     34.6252      0.0000
  3481.0000    824.5609    185.7725     23.3443    289.6891     31.4306     43.3666     36.8561      0.0000
  3481.5000    826.1436    195.8196     23.7968    289.4163     31.0491     44.2650     37.5589      0.0000
  3482.0000    823.7695    193.7395     24.8898    289.0610     32.2509     45.4742     38.9420      0.0000
  3482.5000    824.5609    174.0057     25.6063    288.9058     34.5317     47.1097     40.2827      0.0000
  3483.0000    807.9418    157.4070     24.3876    289.4157     32.8682     46.0575     39.2948      0.0000
  3483.5000    822.1867    159.9355     22.7413    289.7943     31.6955     42.7879     37.0936      0.0000
  3484.0000    831.6833    170.6731     21.4170    290.2045     29.5593     40.4594     34.3506      0.0000
  3484.5000    830.1005    179.8370     21.1449    290.5872     29.0708     39.0755     32.9851      0.0000
  3485.0000    803.1935    175.8845     20.3808    291.1640     27.5797     37.4339     31.8677      0.0000
  3485.5000    811.1073    150.8593     17.8820    297.4084     23.1009     33.1020     27.6838      0.0000
  3486.0000    805.5676    131.0773     16.3177    314.0831     20.5393     29.7035     24.5759      0.0000
  3486.5000    821.3953    131.1305     14.5908    331.2746     17.5977     26.7011     21.7978      0.0000
  3487.0000    830.8919    138.7588     12.3976    340.3217     13.0431     23.0514     17.5928      0.0000
  3487.5000    830.8919    159.2503     12.2404    341.4780     13.1680     23.4460     17.4425     -2.0000
  3488.0000    803.9849    187.6994     11.4141    341.2357     13.6892     22.8529     17.3533      0.0000
  3488.5000    828.5178    196.0348     11.8829    336.0536     15.0797     22.6841     18.5851      0.0000
  3489.0000    811.1073    187.5406     15.3560    318.5104     17.3886     25.6972     21.5740      0.0000
  3489.5000    819.8126    189.5767     15.2009    308.3804     14.7253     26.1468     20.6354      0.0000
  3490.0000    819.8126    194.7277     15.6970    298.4519     17.4223     29.2495     23.0112      0.0000
  3490.5000    823.7695    184.5148     16.4138    293.3129     19.1001     31.0751     24.7365      0.0000
  3491.0000    809.5245    175.6457     16.5401    292.7420     20.2232     32.0352     25.7766      0.0000
  3491.5000    826.9350    178.7000     16.9566    292.1189     21.9012     31.8044     26.9103      0.0000
  3492.0000    806.3590    183.4733     18.0231    291.3673     22.6608     33.3709     28.1692      0.0000
  3492.5000    809.5245    186.5610     19.2559    291.0673     24.9544     36.1314     30.2760      0.0000
  3493.0000    828.5178    199.4539     21.1612    290.4366     27.6535     39.9363     33.4340      0.0000
  3493.5000    817.4384    211.2548     23.1199    289.2683     30.4463     43.1856     36.6861      0.0000
  3494.0000    807.9418    199.2050     23.8608    288.7286     30.9430     46.1955     38.4695      0.0000
  3494.5000    826.9350    183.9466     25.3401    288.9664     32.4689     49.0987     40.2342      0.0000
  3495.0000    802.4020    185.4946     27.0181    289.0947     33.8304     49.5086     41.5016      0.0000
  3495.5000    826.9350    185.6958     26.0385    288.8397     33.2464     47.0110     40.2236      0.0000
  3496.0000    826.1436    183.0298     24.6249    288.7950     32.2754     44.1719     38.5669      0.0000
  3496.5000    828.5178    187.1254     24.0756    289.3073     32.9494     43.3556     38.0746      0.0000
  3497.0000    799.2365    199.9820     23.3391    289.6959     32.2985     42.1024     36.7360      0.0000
  3497.5000    823.7695    211.3481     22.5182    289.6359     30.7878     41.0320     35.4973      0.0000
  3498.0000    807.9418    214.0118     21.8096    289.4199     29.2210     39.9526     34.3863      0.0000
  3498.5000    828.5178    203.7759     21.2457    290.3507     27.2849     39.0300     33.1043      0.0000
  3499.0000    831.6833    194.9838     20.7138    290.7382     26.6383     38.1788     32.1069      0.0000
  3499.5000    834.0574    183.6804     20.3158    290.5335     25.5084     36.1935     30.6916      0.0000
  3500.0000    803.1935    169.0441     20.5593    290.6669     25.2398     35.3389     30.2328      0.0000
  3500.5000    822.1867    169.5418     20.2503    290.8872     25.7285     35.2971     30.5521      0.0000
  3501.0000    809.5245    174.9289     19.2712    291.1975     25.4904     34.4837     29.7308      0.0000
  3501.5000    826.9350    167.1495     18.4690    291.2847     25.1367     34.2673     28.9883      0.0000
  3502.0000    830.8919    152.7292     18.4911    291.2321     24.4087     32.7238     28.5707      0.0000
  3502.5000    811.8987    137.4854     18.2460    291.7029     22.7651     31.0322     27.6717      0.0000
  3503.0000    815.8556    125.0660     17.7709    292.2377     22.3115     30.9163     26.3398      0.0000
  3503.5000    818.2297    120.3312     17.6068    292.7946     22.9203     30.0577     25.9725      0.0000
  3504.0000    806.3590    130.2372     17.1963    292.8045     22.3500     30.6959     25.6707      0.0000
