~Version Information
VERS.                      2.0: CWLS Log ASCII Standard - VERSION 2.0
WRAP.                       NO: One line per depth step
~Well Information Block
STRT.FT                17.0000: 
STOP.FT             10431.5000: 
STEP.FT                 0.5000: 
NULL.                -999.2500: 
COMP.          WPX ENERGY WILLISTON, LLC: COMPANY
WELL.          OTTER WOMAN 34-27HG: WELL
FLD.                  MANDAREE: FIELD
LOC.           LOT2--247' FNL & 2311' FEL: LOCATION
CNTY.                     DUNN: COUNTY
SRVC.                         : SERVICE COMPANY
DATE.          Fri Jun 15 18-22-46 2018: LOG DATE
UWI.              33-025-03337: UNIQUE WELL ID
STAT.                N. DAKOTA: STATE
~Curve Information Block
DEPT.FT            0 000 00 00: Depth
LTEN.lb                       : Surface Line Tension
GR.GAPI                       : Gamma Ray
AMP3FT.mV                     : AMP3FT Amplitude
TT3FT.usec                    : 3FT Travel Time
AMPMIN.                       : Minimum Sector Amplitude
AMPMAX.                       : Maximum Sector Amplitude
AMPAVG.                       : Average Sector Amplitude
CCL.                          : Casing Collar Locator
~Parameter Information Block
~A  Depth       LTEN         GR        AMP3FT      TT3FT       AMPMIN      AMPMAX      AMPAVG       CCL     
# ...
  6242.0000   1338.1697     94.9801     20.5335    290.9182     30.6881     33.9794     32.4398      0.0000
  6242.5000   1323.9247    106.8181     20.2696    290.7192     28.7195     33.2736     30.6350      0.0000
  6243.0000   1301.7660    108.5387     19.5930    290.8139     27.5838     31.9448     29.5839      0.0000
  6243.5000   1313.6367    108.0010     19.6476    290.9026     27.8404     32.1072     29.6688      0.0000
  6244.0000   1308.0970    102.4062     20.2398    290.8774     28.9945     33.4673     31.2735      0.0000
  6244.5000   1317.5936     93.3111     20.1067    290.9883     29.1588     34.6501     32.3251      0.0000
  6245.0000   1347.6663     90.6183     20.2897    291.1357     30.5588     35.0262     32.7738      0.0000
  6245.5000   1326.2988     96.3614     21.4637    290.8789     31.6147     36.5381     33.6457      0.0000
  6246.0000   1304.1401    114.0067     21.8046    290.8824     32.4974     38.3365     35.7878      0.0000
  6246.5000   1321.5505    130.3208     22.5452    290.8866     34.0044     41.2636     38.6608      0.0000
  6247.0000   1313.6367    147.1461     24.8350    290.5548     37.5044     44.6837     41.5635      0.0000
  6247.5000   1322.3419    173.7423     27.5155    289.9759     41.7004     48.7494     45.3635      0.0000
  6248.0000   1338.9611    182.5237     30.3600    289.4936     45.3153     53.5446     49.2775      0.0000
  6248.5000   1342.1266    160.4599     32.4017    289.4383     48.1476     56.3158     52.1488      0.0000
  6249.0000   1310.4712    153.0055     35.2330    289.3769     51.1847     58.6828     55.2631      0.0000
  6249.5000   1322.3419    170.7391     36.7347    289.1492     52.9841     62.3245     57.2195      0.0000
  6250.0000   1308.8884    180.9377     35.0909    288.9715     53.5741     62.6940     56.7519      0.0000
  6250.5000   1326.2988    155.1126     33.3266    289.0544     52.3102     61.7052     56.1092      0.0000
  6251.0000   1347.6663    105.8172     35.0046    288.8964     53.5333     64.8928     59.1448      0.0000
  6251.5000   1338.9611     70.8816     38.5840    288.9801     56.7742     68.9622     62.3936      0.0000
  6252.0000   1319.9678     59.8319     40.7127    289.0805     59.8828     71.1622     64.6237      0.0000
  6252.5000   1321.5505     52.7027     38.5905    288.6694     57.0847     68.8440     62.0377      0.0000
  6253.0000   1310.4712     50.3541     34.8762    288.1851     50.6126     63.2989     56.0650      0.0000
  6253.5000   1329.4644     54.8523     34.0197    287.8311     47.8113     65.3251     55.0829      0.0000
  6254.0000   1346.0835     56.1964     34.1659    287.8819     47.5324     66.3374     55.3383      0.0000
  6254.5000   1352.4146     58.3572     31.7229    288.5963     43.2945     57.7257     49.7791      0.0000
  6255.0000   1326.2988     70.7418     25.9575    289.9214     32.3307     45.5184     38.0027      0.0000
  6255.5000   1313.6367     83.3289     20.3580    291.4259     24.7424     37.2237     29.9295      0.0000
  6256.0000   1311.2626     96.2608     16.7407    292.5354     22.4353     31.0278     26.2558      0.0000
  6256.5000   1320.7592    116.4854     15.1950    294.0969     21.6453     26.7012     23.9350      0.0000
  6257.0000   1333.4214    122.2201     14.1848    303.1485     21.6200     22.9999     22.0655      0.0000
  6257.5000   1333.4214    123.7607     15.1126    315.7616     21.6166     23.5480     22.6252      0.0000
  6258.0000   1308.8884    122.3123     14.6472    318.8607     19.4586     23.3594     20.8657      0.0000
  6258.5000   1316.8022    111.1513     14.6040    308.8838     20.2481     25.5222     22.2538      0.0000
  6259.0000   1313.6367    100.2678     15.8268    299.4896     22.6077     27.1478     24.9337      0.0000
  6259.5000   1335.0042     87.3994     17.3527    298.5203     25.3761     27.6366     26.5793      0.0000
  6260.0000   1335.7955     72.6602     25.2087    298.0125     32.0303     39.1641     36.0038      0.0000
  6260.5000   1333.4214     72.9803     28.6116    294.6250     38.3258     45.2437     42.0162      0.0000
  6261.0000   1306.5143     88.6964     24.9731    291.0727     36.1363     41.2019     38.8215      0.0000
  6261.5000   1305.7229     91.1602     23.7481    289.7727     35.1359     40.8581     38.0125      0.0000
  6262.0000   1305.7229     90.8329     22.6280    289.6685     33.9210     39.6277     36.7989      0.0000
  6262.5000   1342.1266    105.3794     22.2316    289.6176     32.0730     40.3197     35.9324      0.0000
  6263.0000   1335.7955    120.1960     22.7689    289.4114     31.7265     39.7217     35.6213      0.0000
  6263.5000   1329.4644    115.4209     23.3174    289.2418     32.5037     38.8984     36.1930      0.0000
  6264.0000   1308.8884     96.4962     24.1259    289.4417     35.0288     40.0309     37.7234      0.0000
  6264.5000   1323.1333     87.1257     25.2362    289.6156     37.9685     43.2282     40.1937      0.0000
  6265.0000   1318.3850     85.4229     26.6216    289.3671     39.4661     46.3914     42.7870      0.0000
  6265.5000   1346.8749     79.7619     29.1805    288.9072     42.8024     49.8243     46.2815      0.0000
  6266.0000   1351.6232     76.2086     32.0733    289.0327     47.0965     54.5567     51.0133      0.0000
  6266.5000   1328.6730     77.6991     33.9263    289.2164     50.4547     60.0058     54.9667      0.0000
  6267.0000   1304.1401     73.6023     34.7279    289.2098     51.8588     61.7673     57.1633      0.0000
  6267.5000   1324.7161     70.4933     36.2259    288.9568     55.1232     65.2866     60.4346      0.0000
  6268.0000   1309.6798     72.5203     37.1558    288.6583     57.3989     64.8200     61.5530      0.0000
  6268.5000   1326.2988     72.4924     37.0602    288.0506     57.3279     63.2677     60.5625      0.0000
  6269.0000   1346.0835     71.0256     36.7442    287.9377     55.6269     62.3716     59.1278      0.0000
  6269.5000   1331.8385     62.9933     37.0051    288.0547     55.6378     63.8001     58.8716      0.0000
  6270.0000   1311.2626     60.3173     36.1880    288.2094     55.9455     64.9952     59.8775      0.0000
  6270.5000   1331.8385     68.1944     35.7222    288.3323     55.0233     67.0046     60.0170      0.0000
  6271.0000   1319.1764     70.0433     35.6250    288.4243     52.7016     63.7814     58.4270      0.0000
  6271.5000   1328.6730     67.7935     34.4975    288.9785     49.2086     63.4805     56.4601      0.0000
  6272.0000   1351.6232     66.7258     32.5205    289.3476     44.2299     59.1880     51.6607      0.0000
  6272.5000   1317.5936     67.3696     28.4689    289.4300     39.8299     52.3903     45.9804      0.0000
  6273.0000   1310.4712     73.6828     25.5667    289.0179     34.2329     47.3492     41.2454      0.0000
  6273.5000   1319.9678     80.4839     23.7788    289.1378     31.1029     43.0453     37.1640      0.0000
  6274.0000   1312.0540     75.9281     23.6024    289.8167     31.0100     40.6091     35.8330      0.0000
  6274.5000   1332.6299     70.8156     23.9595    290.1476     32.5742     40.3185     36.4546      0.0000
  6275.0000   1348.4576     69.5038     24.3406    289.9889     34.8141     40.5058     37.5901      0.0000
  6275.5000   1323.1333     62.0828     26.0333    289.4521     37.1297     44.5052     40.3808      0.0000
  6276.0000   1316.8022     56.8671     27.5310    289.3081     38.3351     48.1988     42.7694      0.0000
  6276.5000   1321.5505     67.2287     28.3990    289.2462     39.2823     50.8770     44.9309      0.0000
  6277.0000   1319.1764     83.6825     29.3139    289.1269     41.1177     52.7764     46.7307      0.0000
  6277.5000   1338.1697     84.7953     29.8405    289.0656     43.0092     52.8798     47.9949      0.0000
  6278.0000   1350.8318     76.0368     29.7943    289.3778     43.3975     52.8362     48.1995      0.0000
  6278.5000   1350.8318     76.2710     30.9527    289.3117     44.6422     54.4794     50.1668      0.0000
  6279.0000   1319.1764     75.6363     33.6424    289.0129     49.1508     60.4273     54.5805      0.0000
