~Version Information
VERS.                      2.0: CWLS Log ASCII Standard - VERSION 2.0
WRAP.                       NO: One line per depth step
~Well Information Block
STRT.FT             10330.5000: 
STOP.FT                16.5000: 
STEP.FT                -0.5000: 
NULL.                -999.2500: 
COMP.          WPX ENERGY WILLISTON, LLC: COMPANY
WELL.          OTTER WOMAN 34-27HP: WELL
FLD.                  MANDAREE: FIELD
LOC.           LOT2--249' FNL & 2281' FEL: LOCATION
CNTY.                     DUNN: COUNTY
SRVC.                         : SERVICE COMPANY
DATE.          Fri Jun 15 11-35-34 2018: LOG DATE
UWI.              33-025-03338: UNIQUE WELL ID
STAT.                       ND: STATE
~Curve Information Block
DEPT.FT            0 000 00 00: Depth
LTEN.lb                       : Surface Line Tension
GR.GAPI                       : Gamma Ray
AMP3FT.mV                     : AMP3FT Amplitude
TT3FT.usec                    : 3FT Travel Time
CCL.                          : Casing Collar Locator
AMPMIN.                       : Minimum Sector Amplitude
AMPMAX.                       : Maximum Sector Amplitude
AMPAVG.                       : Average Sector Amplitude
~Parameter Information Block
~A  Depth       LTEN         GR        AMP3FT      TT3FT        CCL        AMPMIN      AMPMAX      AMPAVG   
# ...
  8268.0000   1761.4628     75.9091     14.8130    337.1911      0.0000     18.9718     26.2309     22.8152
  8267.5000   1781.5153     66.8613     15.5448    336.5405      0.0000     19.6782     27.6161     24.0804
  8267.0000   1763.8690     57.6329     15.6224    336.1736      0.0000     19.8654     28.1121     24.5053
  8266.5000   1777.5048     51.3608     15.2167    335.8637      0.0000     20.5023     27.1215     24.0310
  8266.0000   1792.7448     57.0949     14.5107    335.2598      0.0000     19.7732     25.1092     22.3887
  8265.5000   1787.9321     67.2568     13.5450    334.8780      0.0000     18.0553     23.1185     20.6205
  8265.0000   1772.6921     69.7482     12.4899    335.0178      0.0000     16.9901     21.1181     18.9470
  8264.5000   1787.1300     66.0935     12.2358    335.2977      0.0000     17.3849     20.5527     18.5928
  8264.0000   1775.9006     62.4044     12.4239    335.6511      0.0000     16.5090     20.6782     18.6121
  8263.5000   1793.5469     69.8294     12.0854    335.9318      0.0000     15.7719     20.1922     18.0594
  8263.0000   1805.5784     84.7707     11.0539    335.6854      0.0000     14.7787     18.5051     16.4605
  8262.5000   1803.1721     94.7862     10.3886    336.7587      0.0000     12.9994     17.4431     15.4848
  8262.0000   1771.8900     95.6116     10.2365    337.2348      0.0000     12.5896     17.3915     15.2403
  8261.5000   1784.7238     95.4144     10.4477    336.5175      0.0000     12.8527     17.7104     15.3381
  8261.0000   1766.2754    107.5773     11.2914    336.5625      0.0000     14.6787     18.9821     16.6674
  8260.5000   1787.1300    123.9447     12.1708    335.9231      0.0000     17.3391     21.0294     18.8778
  8260.0000   1799.9636    126.4529     12.9641    335.1384      0.0000     19.3698     23.4872     20.9260
  8259.5000   1803.1721    119.1466     15.5312    335.1996      0.0000     22.9634     27.8898     24.9269
  8259.0000   1773.4943    103.7841     19.2906    333.6392      0.0000     28.9560     33.7261     30.8683
  8258.5000   1795.1510     97.3886     22.8552    321.8826      0.0000     34.6407     39.2931     36.5948
  8258.0000   1773.4943    100.5296     25.4073    304.0692      0.0000     38.7779     43.5242     40.5136
  8257.5000   1787.1300    101.9511     27.5409    297.9355      0.0000     41.7497     45.9930     43.3390
  8257.0000   1799.1615     99.9222     28.8165    297.0174      0.0000     44.2920     47.4972     45.7316
  8256.5000   1791.9426     96.7277     29.6871    296.6992      0.0000     47.4268     48.8671     48.0363
  8256.0000   1775.9006    103.9586     30.6987    296.4360      0.0000     49.1805     49.9517     49.6258
  8255.5000   1791.1405    108.6443     31.2180    296.2740      0.0000     49.5330     50.9497     50.2101
  8255.0000   1771.0880     87.5430     31.5114    296.1928      0.0000     50.0415     51.7761     50.6720
  8254.5000   1783.1195     64.1262     31.9120    296.2164      0.0000     49.8165     53.7685     51.5144
  8254.0000   1789.5364     62.6027     31.5873    297.9376      0.0000     47.9315     54.5333     50.8823
  8253.5000   1776.7026     69.3669     30.1560    306.0447      0.0000     45.5795     51.0467     48.2015
  8253.0000   1761.4628     74.1231     31.6227    309.7587      0.0000     45.2643     51.6451     48.1860
  8252.5000   1783.9216     81.7791     27.9757    318.0189      0.0000     36.5191     44.8475     40.0394
  8252.0000   1769.4838     77.4725     17.2035    336.5231      0.0000     22.2226     28.6037     24.9811
  8251.5000   1780.7131     58.7721     13.9683    342.2501      0.0000     17.7057     24.6627     21.0141
  8251.0000   1799.1615     50.7320     12.9249    342.5954      0.0000     16.1591     22.8278     19.2158
  8250.5000   1777.5048     61.8078     16.4390    339.7772      0.0000     22.5657     25.2754     23.4153
  8250.0000   1771.8900     70.8772     22.4292    332.5911      0.0000     30.6021     33.8947     32.6476
  8249.5000   1783.9216     71.9785     21.0924    335.3078      0.0000     31.5020     34.6122     32.8717
  8249.0000   1771.0880     72.6622     22.1980    336.7855      0.0000     34.5553     37.0624     35.4255
  8248.5000   1767.8795     71.2868     22.3039    336.5227      0.0000     34.3272     36.2174     35.3094
  8248.0000   1778.3069     67.0289     22.5999    336.4984      0.0000     35.1127     36.1647     35.6672
  8247.5000   1784.7238     67.5506     22.4316    336.3318      0.0000     34.4456     36.2723     35.3134
  8247.0000   1759.0564     71.5171     21.2075    335.9996      0.0000     31.6119     34.1219     33.1268
  8246.5000   1785.5258     71.6050     19.8969    336.0053      0.0000     29.5566     32.5438     30.9314
  8246.0000   1762.2649     66.9961     19.0645    336.2157      0.0000     28.5781     30.7512     29.6579
  8245.5000   1783.1195     61.9919     19.0956    336.1114      0.0000     28.7486     29.9353     29.2154
  8245.0000   1795.9531     64.7001     18.8837    335.7509      0.0000     27.7366     29.6539     28.7892
  8244.5000   1772.6921     76.3963     18.7017    335.7798      0.0000     27.2422     30.1536     28.7493
  8244.0000   1768.6816     79.7694     19.3960    335.7305      0.0000     29.1981     30.8068     30.0282
  8243.5000   1781.5153     73.2693     19.4625    335.8699      0.0000     29.1006     31.5550     30.2747
  8243.0000   1760.6606     60.5556     18.1325    336.6227      0.0000     26.9799     29.2109     28.0795
  8242.5000   1785.5258     52.4112     15.6549    337.2982      0.0000     22.9400     24.2953     23.7549
  8242.0000   1793.5469     58.7808     13.1977    337.1935      0.0000     18.8035     20.8449     19.7494
  8241.5000   1777.5048     82.8236     11.7081    336.4262      0.0000     15.6430     19.7926     17.3829
  8241.0000   1763.8690    108.6653     10.5995    335.8264      0.0000     13.4441     18.3790     15.3551
  8240.5000   1784.7238    124.1114     10.0468    335.7404      0.0000     12.6087     17.3141     14.3652
  8240.0000   1751.8375    129.6078     10.3694    335.9600      0.0000     13.0828     17.0354     14.8320
  8239.5000   1776.7026    125.5027     11.4186    336.1928      0.0000     15.4509     18.0470     16.5408
  8239.0000   1783.9216    114.1534     12.7845    335.9611      0.0000     17.9073     19.9243     18.9683
  8238.5000   1775.9006    104.5349     13.6692    335.0942      0.0000     19.3088     21.6181     20.4364
  8238.0000   1767.0774    109.6905     14.2491    334.6212      0.0000     20.5280     22.8063     21.4917
  8237.5000   1782.3174    114.1082     14.7322    334.8821      0.0000     20.5400     25.0495     22.6654
  8237.0000   1772.6921    106.8771     15.7054    335.3388      0.0000     22.0286     27.7824     24.7127
  8236.5000   1795.9531     98.3506     17.2324    335.7477      0.0000     24.2660     28.9065     26.7428
  8236.0000   1787.9321     97.0494     18.5922    336.0346      0.0000     26.6826     30.2490     28.7195
  8235.5000   1778.3069     93.6713     19.2788    336.0244      0.0000     27.9305     31.4732     29.9827
  8235.0000   1765.4733     88.3410     19.3085    336.0244      0.0000     27.7040     31.3450     29.8481
  8234.5000   1771.8900     92.4797     19.1602    335.8228      0.0000     27.6782     30.9757     29.1337
  8234.0000   1771.8900     90.6309     18.0557    335.6656      0.0000     25.4056     30.4462     27.5387
  8233.5000   1787.1300     78.1328     16.9353    335.6593      0.0000     24.1753     28.4696     26.1131
  8233.0000   1787.9321     65.4126     15.7291    335.5423      0.0000     22.2381     25.9885     24.0697
  8232.5000   1770.2859     67.5150     14.4401    335.6971      0.0000     20.0133     23.8377     22.0419
  8232.0000   1756.6501     81.5169     13.7071    336.0769      0.0000     19.7148     23.0680     21.2442
  8231.5000   1775.9006     89.2302     14.1627    336.1033      0.0000     20.3494     24.0016     21.8768
  8231.0000   1775.0985     88.3552     15.3604    335.9625      0.0000     22.2579     25.8388     23.7996
