~Version Information
VERS.                      2.0: CWLS Log ASCII Standard - VERSION 2.0
WRAP.                       NO: One line per depth step
~Well Information Block
STRT.FT             10330.5000: 
STOP.FT                16.5000: 
STEP.FT                -0.5000: 
NULL.                -999.2500: 
COMP.          WPX ENERGY WILLISTON, LLC: COMPANY
WELL.          OTTER WOMAN 34-27HP: WELL
FLD.                  MANDAREE: FIELD
LOC.           LOT2--249' FNL & 2281' FEL: LOCATION
CNTY.                     DUNN: COUNTY
SRVC.                         : SERVICE COMPANY
DATE.          Fri Jun 15 11-35-34 2018: LOG DATE
UWI.              33-025-03338: UNIQUE WELL ID
STAT.                       ND: STATE
~Curve Information Block
DEPT.FT            0 000 00 00: Depth
LTEN.lb                       : Surface Line Tension
GR.GAPI                       : Gamma Ray
AMP3FT.mV                     : AMP3FT Amplitude
TT3FT.usec                    : 3FT Travel Time
CCL.                          : Casing Collar Locator
AMPMIN.                       : Minimum Sector Amplitude
AMPMAX.                       : Maximum Sector Amplitude
AMPAVG.                       : Average Sector Amplitude
~Parameter Information Block
~A  Depth       LTEN         GR        AMP3FT      TT3FT        CCL        AMPMIN      AMPMAX      AMPAVG   
# ...
  2793.0000    707.4998    117.7508     10.6949    341.9167      0.0000     12.9376     18.9416     15.5126
  2792.5000    697.0725    114.6971     10.8357    341.7035      0.0000     12.9835     18.8866     15.7741
  2792.0000    720.3335    132.8214     10.7970    341.5351      0.0000     12.9089     18.9252     15.8344
  2791.5000    720.3335    149.1635     10.8260    341.3894      0.0000     13.3282     19.7943     16.1893
  2791.0000    714.7188    150.9003     11.3943    341.1606      0.0000     13.9872     20.7661     16.9283
  2790.5000    696.2704    146.1142     12.0037    340.9478      0.0000     14.5165     21.7734     17.5923
  2790.0000    710.7083    141.9278     12.5800    340.9579      0.0000     14.4038     22.4157     17.9086
  2789.5000    709.1041    135.0134     12.4865    341.1198      0.0000     14.4049     22.1551     18.0384
  2789.0000    712.3124    129.0183     12.1353    341.1694      0.0000     14.6175     22.1010     17.9390
  2788.5000    713.1146    133.9810     12.1312    341.1042      0.0000     15.0118     22.1302     17.9328
  2788.0000    713.1146    137.4886     12.3841    341.0649      0.0000     15.8552     22.2304     18.3112
  2787.5000    701.8851    138.7843     12.7439    341.1842      0.0000     15.8792     21.8877     18.3240
  2787.0000    707.4998    155.9690     12.6067    341.3431      0.0000     15.1024     21.2069     17.8099
  2786.5000    690.6557    168.0062     12.2503    341.3889      0.0000     14.7259     21.2025     17.5911
  2786.0000    704.2914    149.5410     12.4515    341.3297      0.0000     15.3068     21.8305     18.0831
  2785.5000    705.0935    135.2460     12.6697    341.2629      0.0000     15.6932     22.4910     18.5527
  2785.0000    694.6662    137.7575     12.8501    341.2051      0.0000     15.4329     22.8154     18.5492
  2784.5000    689.8536    135.9919     13.1645    340.9729      0.0000     15.6272     23.1221     18.9985
  2784.0000    697.8746    123.0213     13.1043    340.8837      0.0000     15.8906     23.6211     19.4108
  2783.5000    694.6662    121.4334     12.7188    340.9535      0.0000     15.4728     23.2714     19.0486
  2783.0000    715.5209    136.7712     12.6156    340.9286      0.0000     15.1918     23.0149     18.7461
  2782.5000    705.8956    139.6452     12.4691    340.8479      0.0000     15.2110     22.5331     18.3347
  2782.0000    707.4998    121.8433     12.1362    340.8453      0.0000     15.0532     21.4689     17.9061
  2781.5000    698.6767    112.5500     11.8208    340.8624      0.0000     14.8624     20.6430     17.6024
  2781.0000    712.3124    126.4924     11.8687    340.9239      0.0000     14.5146     20.2930     17.3528
  2780.5000    693.8641    144.1527     12.1730    341.1019      0.0000     14.8431     20.5933     17.6292
  2780.0000    707.4998    134.8262     12.3933    341.3852      0.0000     15.3360     20.4656     17.7841
  2779.5000    709.9061    106.9243     12.0046    341.7929      0.0000     15.1227     19.3685     17.2517
  2779.0000    701.0830     91.7861     11.7729    342.1938      0.0000     15.4969     19.1360     17.2352
  2778.5000    691.4578     94.4071     11.5145    342.4847      0.0000     15.3414     18.9299     16.8800
  2778.0000    705.0935     98.1674     11.3118    342.4751      0.0000     14.4438     18.5169     16.4007
  2777.5000    698.6767    104.3159     11.4222    342.3119      0.0000     14.8805     18.9102     16.7347
  2777.0000    713.9166    124.3777     11.3161    342.3645      0.0000     15.0555     19.4088     16.9433
  2776.5000    710.7083    130.1438     11.1848    342.4497      0.0000     14.4312     19.0359     16.5719
  2776.0000    693.8641    116.2773     11.0726    342.3698      0.0000     13.4913     18.1900     16.0134
  2775.5000    697.0725    101.6825     11.7157    342.1534      0.0000     14.3402     19.5416     16.9882
  2775.0000    708.3019    100.2887     12.2977    341.8811      0.0000     15.5654     20.8200     17.9543
  2774.5000    704.2914    121.8457     12.2430    341.6513      0.0000     16.0539     21.0793     18.2891
  2774.0000    714.7188    129.0045     12.2750    341.4879      0.0000     15.9327     21.4838     18.3796
  2773.5000    705.0935    115.0821     12.3823    341.2990      0.0000     15.4800     21.7675     18.3732
  2773.0000    707.4998    119.2200     12.3852    341.2025      0.0000     15.5661     21.9876     18.6789
  2772.5000    697.8746    137.4268     12.0002    341.3253      0.0000     15.3014     21.4386     18.0833
  2772.0000    701.8851    136.2202     11.7893    341.3965      0.0000     14.4578     21.1210     17.3314
  2771.5000    689.0515    121.9746     11.5602    341.3188      0.0000     13.9848     20.7437     16.8647
  2771.0000    708.3019    113.5192     11.5173    341.2492      0.0000     14.0349     20.9351     17.0235
  2770.5000    709.9061    119.3268     11.9073    341.2180      0.0000     14.2277     21.8768     17.6895
  2770.0000    697.8746    129.9846     12.3305    341.0965      0.0000     14.9385     22.8386     18.2687
  2769.5000    689.8536    122.2272     12.3907    341.0001      0.0000     14.7691     22.8880     18.0938
  2769.0000    702.6872    116.1718     12.2154    340.9127      0.0000     14.8643     22.5020     17.9801
  2768.5000    693.8641    125.2988     12.1271    340.8367      0.0000     15.4382     21.7093     18.0782
  2768.0000    709.1041    125.9392     12.0156    340.8909      0.0000     15.5318     20.7829     18.0523
  2767.5000    705.0935    116.5609     11.9969    340.9893      0.0000     15.4589     20.3731     18.0810
  2767.0000    697.8746    116.0145     11.9676    341.1700      0.0000     15.3668     19.9241     17.7786
  2766.5000    697.8746    124.2028     11.6860    341.4742      0.0000     15.0454     18.6059     16.8431
  2766.0000    697.8746    128.1983     11.1690    341.6760      0.0000     14.4228     17.6292     16.0160
  2765.5000    687.4473    130.6015     10.7003    341.7872      0.0000     13.6791     17.1931     15.4623
  2765.0000    709.1041    123.6782     10.7403    341.7555      0.0000     13.7502     17.1137     15.2945
  2764.5000    717.1251    109.7522     10.9752    341.7392      0.0000     13.9602     17.2128     15.4710
  2764.0000    697.0725    112.0805     10.6914    341.9066      0.0000     13.5674     16.7171     15.1840
  2763.5000    694.6662    124.8011     10.2846    342.0240      0.0000     13.2260     16.3882     14.7373
  2763.0000    700.2809    134.6868     10.2390    342.0846      0.0000     13.2088     16.2618     14.5858
  2762.5000    688.2494    130.4674     10.1601    342.2253      0.0000     13.2226     15.9168     14.5393
  2762.0000    706.6978    119.6998     10.2191    342.4066      0.0000     13.2456     15.6855     14.5077
  2761.5000    705.0935    105.3476     10.4099    342.5188      0.0000     13.4464     15.8328     14.6579
  2761.0000    697.0725    100.7303     10.4630    342.5745      0.0000     13.6958     15.6719     14.8233
  2760.5000    690.6557    103.8755     10.4662    342.6714      0.0000     13.7458     15.3062     14.6022
  2760.0000    712.3124    106.9999     10.2822    342.6275      0.0000     13.2927     15.2796     14.1434
  2759.5000    698.6767    111.9503     10.2136    342.4518      0.0000     13.2577     15.4728     14.3939
  2759.0000    701.8851    110.7880     10.2381    342.5927      0.0000     13.2266     15.6876     14.6549
  2758.5000    708.3019    103.9491      9.7113    345.0957      0.0000     12.0962     14.7954     13.6232
  2758.0000    705.0935     97.0666      9.9750    354.0177      0.0000     12.3160     14.9395     13.1718
  2757.5000    697.8746     94.8803      9.3591    363.0295      0.0000     10.6393     13.7687     11.8431
  2757.0000    699.4788    105.5775      7.8866    354.5963      0.0000      9.5473     12.1581     10.6116
  2756.5000    689.8536    115.6749      7.8906    349.4752      2.0000      9.4993     11.9373     10.6919
  2756.0000    717.1251    117.2731      7.7475    352.3587      0.0000      8.9148     11.0795     10.0655
