~Version Information
VERS.                      2.0: CWLS Log ASCII Standard - VERSION 2.0
WRAP.                       NO: One line per depth step
~Well Information Block
STRT.FT             10330.5000: 
STOP.FT                16.5000: 
STEP.FT                -0.5000: 
NULL.                -999.2500: 
COMP.          WPX ENERGY WILLISTON, LLC: COMPANY
WELL.          OTTER WOMAN 34-27HP: WELL
FLD.                  MANDAREE: FIELD
LOC.           LOT2--249' FNL & 2281' FEL: LOCATION
CNTY.                     DUNN: COUNTY
SRVC.                         : SERVICE COMPANY
DATE.          Fri Jun 15 11-35-34 2018: LOG DATE
UWI.              33-025-03338: UNIQUE WELL ID
STAT.                       ND: STATE
~Curve Information Block
DEPT.FT            0 000 00 00: Depth
LTEN.lb                       : Surface Line Tension
GR.GAPI                       : Gamma Ray
AMP3FT.mV                     : AMP3FT Amplitude
TT3FT.usec                    : 3FT Travel Time
CCL.                          : Casing Collar Locator
AMPMIN.                       : Minimum Sector Amplitude
AMPMAX.                       : Maximum Sector Amplitude
AMPAVG.                       : Average Sector Amplitude
~Parameter Information Block
~A  Depth       LTEN         GR        AMP3FT      TT3FT        CCL        AMPMIN      AMPMAX      AMPAVG   
# ...
  8943.0000   1937.9253     60.3997     19.6835    332.3160      0.0000     23.8343     38.9251     30.9318
  8942.5000   1919.4769     57.5937     18.1227    328.7452      0.0000     19.8098     38.8571     28.1522
  8942.0000   1929.9043     50.2738     11.6356    334.9193      0.0000     10.0572     26.9949     17.3626
  8941.5000   1929.9043     43.6567      7.7906    337.4346      0.0000      3.8486     19.4073     10.9347
  8941.0000   1945.9463     47.7611      7.0888    337.8149      0.0000      2.0764     18.3782      9.7235
  8940.5000   1940.3317     57.0065      6.1262    341.3363      0.0000      1.8315     15.9722      8.2302
  8940.0000   1920.2791     62.8371      6.6829    347.1507      0.0000      5.8602     14.1953      9.3568
  8939.5000   1918.6748     64.2057      8.9998    338.8188      0.0000      9.6217     17.7583     13.1256
  8939.0000   1928.3000     63.6836     11.2258    331.9240      0.0000     11.3426     23.5110     16.6572
  8938.5000   1918.6748     64.6953     11.8193    330.3793      0.0000     11.0844     26.4509     17.9326
  8938.0000   1921.0812     67.5761     11.1331    329.5799      0.0000      8.9313     26.5060     16.8602
  8937.5000   1948.3527     66.6667     10.2422    329.4214      0.0000      7.4746     24.9538     15.1607
  8937.0000   1937.1232     59.7184     10.5446    329.8494      0.0000      8.0136     25.6799     15.8014
  8936.5000   1915.4664     57.0727     11.9587    329.7311      0.0000     11.0747     27.0979     18.0957
  8936.0000   1929.9043     64.0618     12.6373    329.4489      0.0000     12.9825     27.4856     19.2940
  8935.5000   1913.0602     76.0514     13.5361    329.3726      0.0000     14.2049     28.6872     20.6630
  8935.0000   1941.9358     77.4120     13.5145    329.4272      0.0000     14.4391     27.3193     20.2388
  8934.5000   1945.1443     60.8092     12.5581    329.2367      0.0000     13.6387     25.6185     18.7048
  8934.0000   1917.8728     41.7674     11.7113    328.6440      0.0000     12.5338     25.2834     17.8685
  8933.5000   1909.8517     35.9759     11.2158    328.2431      0.0000     11.6751     24.7391     17.2211
  8933.0000   1933.9148     33.3860     10.9637    328.2475      0.0000     11.0674     24.3088     16.6747
  8932.5000   1905.0391     26.2718     10.6149    328.1772      0.0000     10.6073     24.1309     16.1928
  8932.0000   1935.5190     28.0816     10.1051    327.9710      0.0000      9.7548     23.4258     15.2962
  8931.5000   1936.3212     40.2731      9.9486    327.6982      0.0000     10.1051     22.1044     14.8286
  8931.0000   1928.3000     50.2243      9.7393    327.6659      0.0000     10.5833     20.6744     14.4841
  8930.5000   1906.6433     58.6461      9.1414    327.6218      0.0000      9.4316     19.7217     13.4732
  8930.0000   1913.8622     73.7937      8.3129    327.3907      0.0000      7.5798     18.4042     12.0945
  8929.5000   1914.6643     77.7174      8.1268    327.5232      0.0000      7.3604     18.1898     11.7139
  8929.0000   1945.1443     65.8645      8.7001    328.0088      0.0000      8.4706     19.0758     12.6274
  8928.5000   1932.3105     58.5691      8.5151    328.3460      0.0000      8.2987     18.8334     12.6324
  8928.0000   1930.7064     64.6758      7.7076    328.2365      0.0000      6.7110     17.3245     11.2722
  8927.5000   1913.8622     66.6393      6.5787    327.6282      0.0000      4.7225     14.6045      9.0552
  8927.0000   1921.8833     56.6878      5.8067    327.4755      0.0000      4.2830     13.4764      8.1692
  8926.5000   1904.2371     54.5571      5.8948    328.3270      0.0000      4.5030     13.7169      8.4744
  8926.0000   1926.6959     54.8381      6.6862    329.0683      0.0000      5.3756     14.2543      9.3069
  8925.5000   1941.9358     45.9770      7.6283    329.3360      0.0000      6.4691     16.4422     10.9806
  8925.0000   1921.0812     41.6144      8.4941    329.3588      0.0000      7.8165     17.9994     12.3287
  8924.5000   1909.0496     50.1352      9.8597    329.5204      0.0000      9.1520     20.2000     14.2615
  8924.0000   1918.6748     59.7731     10.4013    329.7506      0.0000      9.9084     21.5629     15.3887
  8923.5000   1914.6643     54.7546      9.9763    330.0248      0.0000      9.2601     21.0602     14.6959
  8923.0000   1941.1337     44.7365      9.2651    330.0188      0.0000      8.9476     19.0767     13.4833
  8922.5000   1942.7379     38.7358      8.0032    329.5468      0.0000      8.0319     15.4436     11.4322
  8922.0000   1935.5190     39.2926      6.7524    329.2142      0.0000      5.7632     13.9550      9.6217
  8921.5000   1917.8728     42.4743      6.7095    329.2918      0.0000      5.2849     14.3787      9.2994
  8921.0000   1923.4874     38.5027      6.8851    329.4086      0.0000      5.3703     14.7163      9.5138
  8920.5000   1917.0707     31.9268      6.5564    329.0072      0.0000      5.0456     13.8891      9.0930
  8920.0000   1934.7169     30.5331      6.1559    328.8142      0.0000      4.0806     13.3614      8.5529
  8919.5000   1934.7169     34.8643      5.9518    329.0422      0.0000      3.4622     13.7717      8.2543
  8919.0000   1916.2686     40.7807      6.0222    329.6259      0.0000      3.6558     14.0612      8.2434
  8918.5000   1907.4454     50.9207      6.0531    330.2528      0.0000      3.7541     14.2305      8.2338
  8918.0000   1907.4454     56.3556      6.5518    330.5794      0.0000      4.4088     15.6985      9.1281
  8917.5000   1907.4454     52.2396      6.8738    331.5311      0.0000      5.4598     16.1888      9.9436
  8917.0000   1927.4979     50.9636      7.0316    332.8951      0.0000      5.9768     16.0071     10.1336
  8916.5000   1938.7274     51.4769      6.5582    333.8315      0.0000      5.5101     15.6528      9.4599
  8916.0000   1927.4979     51.4186      6.0666    334.9225      0.0000      4.7370     15.7931      9.1285
  8915.5000   1917.0707     56.1474      6.4116    335.4890      0.0000      5.4520     16.8478     10.0187
  8915.0000   1926.6959     59.4095      7.3297    335.8421      0.0000      6.1619     18.9779     11.3348
  8914.5000   1913.0602     59.7438      8.6801    336.4249      0.0000      6.4896     21.2023     12.7933
  8914.0000   1930.7064     73.5710     10.3132    336.4270      0.0000      9.0941     23.8711     15.5085
  8913.5000   1932.3105     84.4725     13.0326    335.9174      0.0000     14.1722     28.1689     20.4131
  8913.0000   1921.8833     73.0173     15.3741    335.7432      0.0000     18.0745     31.9962     24.3340
  8912.5000   1915.4664     58.8635     15.9324    335.9040      0.0000     18.5139     34.0329     25.6496
  8912.0000   1914.6643     56.8368     16.7805    336.5475      0.0000     19.9063     35.1789     27.1048
  8911.5000   1908.2476     58.8637     17.7492    337.0862      0.0000     23.1883     34.1762     28.2254
  8911.0000   1930.7064     61.2965     18.3019    336.9400      0.0000     24.9805     32.3582     28.8104
  8910.5000   1940.3317     61.4759     18.3799    336.8556      0.0000     25.6371     32.7906     28.8663
  8910.0000   1917.0707     60.3163     18.4058    336.8585      0.0000     26.3977     32.6032     28.8787
  8909.5000   1913.8622     63.0244     19.1903    337.0506      0.0000     28.1219     33.2354     30.2060
  8909.0000   1917.0707     73.1119     20.8162    336.8009      0.0000     31.6406     35.8543     33.4785
  8908.5000   1907.4454     73.7707     21.5521    335.7383      0.0000     32.3039     39.3296     35.4707
  8908.0000   1929.1022     67.6413     21.2618    334.9670      0.0000     29.5281     42.0686     34.9098
  8907.5000   1926.6959     66.9073     20.6686    334.6515      0.0000     25.3840     43.9851     33.3407
  8907.0000   1910.6538     61.5182     18.6242    334.5660      0.0000     20.1286     41.7772     29.4222
  8906.5000   1905.8412     52.1312     17.0171    334.5988      0.0000     17.7658     37.6598     26.3911
  8906.0000   1918.6748     50.7901     15.9145    334.7576      0.0000     17.3301     34.2445     24.8145
