~Version Information
VERS.                      2.0: CWLS Log ASCII Standard - VERSION 2.0
WRAP.                       NO: One line per depth step
~Well Information Block
STRT.FT             10330.5000: 
STOP.FT                16.5000: 
STEP.FT                -0.5000: 
NULL.                -999.2500: 
COMP.          WPX ENERGY WILLISTON, LLC: COMPANY
WELL.          OTTER WOMAN 34-27HP: WELL
FLD.                  MANDAREE: FIELD
LOC.           LOT2--249' FNL & 2281' FEL: LOCATION
CNTY.                     DUNN: COUNTY
SRVC.                         : SERVICE COMPANY
DATE.          Fri Jun 15 11-35-34 2018: LOG DATE
UWI.              33-025-03338: UNIQUE WELL ID
STAT.                       ND: STATE
~Curve Information Block
DEPT.FT            0 000 00 00: Depth
LTEN.lb                       : Surface Line Tension
GR.GAPI                       : Gamma Ray
AMP3FT.mV                     : AMP3FT Amplitude
TT3FT.usec                    : 3FT Travel Time
CCL.                          : Casing Collar Locator
AMPMIN.                       : Minimum Sector Amplitude
AMPMAX.                       : Maximum Sector Amplitude
AMPAVG.                       : Average Sector Amplitude
~Parameter Information Block
~A  Depth       LTEN         GR        AMP3FT      TT3FT        CCL        AMPMIN      AMPMAX      AMPAVG   
# ...
  7593.0000   1624.3032    103.0941     17.7139    336.1280      0.0000     25.3317     30.1234     27.5880
  7592.5000   1651.5747    103.7682     18.5673    336.7581      0.0000     27.3600     30.6896     28.9939
  7592.0000   1651.5747    105.7012     18.6182    336.9057      0.0000     27.0803     31.2536     28.9987
  7591.5000   1651.5747     98.9245     18.8881    336.9971      0.0000     26.9846     32.6468     29.6817
  7591.0000   1641.9495     97.3877     20.4022    337.0551      0.0000     29.1080     35.6746     32.1895
  7590.5000   1625.1052    105.9487     21.9662    337.1180      0.0000     32.5036     37.0849     34.7208
  7590.0000   1621.0947    112.3523     22.7371    335.6100      0.0000     34.1465     37.6758     36.0286
  7589.5000   1624.3032    105.2746     23.6050    323.3989      0.0000     34.3142     40.0112     37.4665
  7589.0000   1611.4695     93.7665     24.7296    304.8982      0.0000     34.1386     43.7943     39.2445
  7588.5000   1638.7410     91.1169     25.9222    298.4386      0.0000     34.2087     47.3591     40.7707
  7588.0000   1641.1473     97.2994     26.3793    298.7305      0.0000     35.3376     48.4191     41.6018
  7587.5000   1620.2926     99.0221     25.5058    305.8855      0.0000     34.1782     46.8984     40.7782
  7587.0000   1626.7095     95.2537     25.2049    306.4302      0.0000     33.9586     46.0891     40.3839
  7586.5000   1623.5011     95.2483     25.5414    299.6238      0.0000     36.1432     44.9618     40.6560
  7586.0000   1629.1158    105.3605     25.2503    298.6036      0.0000     37.1045     43.4974     40.1817
  7585.5000   1643.5536    103.6280     25.1582    298.7374      0.0000     37.7257     43.3437     40.5558
  7585.0000   1643.5536     90.9822     25.4585    298.6041      0.0000     38.8681     43.4535     41.1703
  7584.5000   1630.7200     88.3347     26.2638    298.6617      0.0000     40.1786     43.8213     42.0442
  7584.0000   1615.4801     86.8207     26.3090    304.2993      0.0000     39.5755     43.6381     41.8866
  7583.5000   1617.8864     92.0157     26.1992    319.1948      0.0000     37.6988     43.1064     40.5892
  7583.0000   1633.1263    113.2888     28.1157    321.4528      0.0000     36.7446     42.1975     40.2439
  7582.5000   1647.5642    128.2203     20.7487    331.9308      0.0000     26.1113     32.2148     29.0840
  7582.0000   1635.5326    131.6408     16.8823    342.4833      0.0000     22.7659     27.3234     25.1778
  7581.5000   1617.0842    120.0323     17.1221    344.6247      0.0000     23.7421     26.3156     25.5307
  7581.0000   1619.4906    102.2672     18.6835    344.4911      0.0000     24.6465     28.1284     26.0777
  7580.5000   1623.5011     92.4908     27.0766    333.4525      0.0000     29.8167     40.1025     35.1024
  7580.0000   1614.6780     82.0368     31.1980    318.7201      0.0000     34.8327     48.5522     43.3982
  7579.5000   1639.5431     79.1983     24.5682    321.9602      0.0000     32.3563     44.3407     37.5439
  7579.0000   1634.7305     85.0362     21.8198    330.2398      0.0000     28.5150     42.1864     34.5138
  7578.5000   1617.8864     85.6068     23.2321    322.0569      0.0000     29.3817     45.9575     37.3170
  7578.0000   1633.9285     90.4891     24.9281    304.8415      0.0000     33.0215     48.7134     40.3018
  7577.5000   1621.0947    114.2687     24.8692    305.3899      0.0000     34.2880     47.3243     40.3037
  7577.0000   1619.4906    143.9035     24.2030    322.9528      0.0000     33.3452     45.7180     39.1104
  7576.5000   1639.5431    161.1243     23.9033    329.5182      0.0000     32.7713     44.5964     38.2870
  7576.0000   1639.5431    160.6178     24.9273    312.8649      0.0000     35.0070     45.5825     39.5089
  7575.5000   1626.7095    135.9767     27.1544    299.6880      0.0000     38.9408     49.3981     43.1267
  7575.0000   1625.9073    106.6438     28.8086    296.9311      0.0000     40.8705     52.3728     45.8841
  7574.5000   1614.6780     93.0810     28.7913    296.7618      0.0000     39.8406     53.3545     46.1590
  7574.0000   1631.5221     80.3440     26.7764    302.8490      0.0000     35.6121     51.4112     43.0830
  7573.5000   1639.5431     67.4103     24.6182    321.4428      0.0000     31.2557     48.6634     39.5992
  7573.0000   1637.1368     69.7902     24.2379    328.3054      0.0000     30.1231     48.3330     38.8398
  7572.5000   1623.5011     78.1294     25.8954    311.2928      0.0000     32.9951     50.2487     41.0516
  7572.0000   1624.3032     87.9407     27.6923    298.4309      0.0000     36.5482     51.5956     43.7220
  7571.5000   1625.9073     99.0658     27.2363    298.7708      0.0000     37.8976     49.1523     43.4624
  7571.0000   1609.8654    109.3098     25.4785    311.9678      0.0000     36.5615     45.3446     40.5409
  7570.5000   1643.5536    119.9259     23.8942    330.7650      0.0000     34.8360     42.0820     37.8538
  7570.0000   1643.5536    129.5471     23.2906    336.3978      0.0000     34.6472     40.7446     37.2276
  7569.5000   1633.9285    129.7374     23.5312    332.8087      0.0000     34.7388     40.7063     37.7663
  7569.0000   1627.5116    121.3052     24.0446    321.3203      0.0000     35.3497     41.7971     38.5769
  7568.5000   1618.6885    120.2152     24.9259    308.7755      0.0000     36.2107     43.6058     39.6504
  7568.0000   1625.1052    134.7904     25.3501    301.6428      0.0000     35.9394     44.4655     40.0756
  7567.5000   1639.5431    162.5391     24.6453    309.0464      0.0000     34.7674     43.2447     38.9900
  7567.0000   1637.9390    177.2703     23.8456    321.2517      0.0000     33.7600     42.3373     37.9450
  7566.5000   1618.6885    179.0490     22.8195    332.2833      0.0000     32.3497     40.2878     36.2584
  7566.0000   1631.5221    190.0066     21.8862    336.3299      0.0000     30.9050     38.4042     34.5841
  7565.5000   1609.0632    191.9792     21.8572    336.5269      0.0000     30.4571     38.8072     34.5454
  7565.0000   1633.1263    183.3931     22.3807    336.6512      0.0000     31.2425     39.9249     35.3026
  7564.5000   1636.3347    175.0631     22.5961    336.7458      0.0000     31.3621     40.9957     35.7928
  7564.0000   1636.3347    169.6612     22.7961    336.5393      0.0000     30.5654     41.8189     36.0075
  7563.5000   1618.6885    164.1538     23.1503    335.2227      0.0000     31.0121     42.7485     36.8446
  7563.0000   1624.3032    151.4495     23.5585    328.8021      0.0000     32.6237     43.0548     37.7686
  7562.5000   1627.5116    150.2449     23.5391    328.9705      0.0000     33.6486     42.0903     37.8066
  7562.0000   1642.7516    157.9370     23.2014    334.3911      0.0000     32.9558     40.6714     36.9201
  7561.5000   1643.5536    151.9429     23.4398    328.9139      0.0000     32.4454     40.6761     36.6994
  7561.0000   1635.5326    133.5900     23.3429    328.5994      0.0000     32.0503     40.8006     36.4404
  7560.5000   1620.2926    122.5324     22.6626    335.0959      0.0000     31.2885     40.4786     35.7697
  7560.0000   1629.9178    120.5094     22.2118    336.4533      0.0000     30.5531     40.1062     35.0888
  7559.5000   1609.0632    115.9676     21.9084    336.3237      0.0000     30.5626     39.0960     34.6942
  7559.0000   1619.4906    113.0648     22.3110    336.3425      0.0000     31.6397     39.2509     35.5017
  7558.5000   1633.1263    118.1748     22.5914    336.3943      0.0000     31.4770     40.0249     35.8181
  7558.0000   1640.3452    122.2561     22.3632    336.5102      0.0000     30.9499     39.8686     35.3362
  7557.5000   1619.4906    112.1136     21.9042    336.9186      0.0000     30.8545     38.4406     34.5489
  7557.0000   1627.5116     95.0564     21.3774    337.0449      0.0000     30.2250     37.5044     33.8309
  7556.5000   1616.2821     90.8061     21.1075    336.8968      0.0000     29.5780     37.4376     33.4288
  7556.0000   1636.3347     98.0586     20.6748    336.5772      0.0000     28.9919     37.0317     32.8260
