~Version Information
VERS.                      2.0: CWLS Log ASCII Standard - VERSION 2.0
WRAP.                       NO: One line per depth step
~Well Information Block
STRT.FT             10330.5000: 
STOP.FT                16.5000: 
STEP.FT                -0.5000: 
NULL.                -999.2500: 
COMP.          WPX ENERGY WILLISTON, LLC: COMPANY
WELL.          OTTER WOMAN 34-27HP: WELL
FLD.                  MANDAREE: FIELD
LOC.           LOT2--249' FNL & 2281' FEL: LOCATION
CNTY.                     DUNN: COUNTY
SRVC.                         : SERVICE COMPANY
DATE.          Fri Jun 15 11-35-34 2018: LOG DATE
UWI.              33-025-03338: UNIQUE WELL ID
STAT.                       ND: STATE
~Curve Information Block
DEPT.FT            0 000 00 00: Depth
LTEN.lb                       : Surface Line Tension
GR.GAPI                       : Gamma Ray
AMP3FT.mV                     : AMP3FT Amplitude
TT3FT.usec                    : 3FT Travel Time
CCL.                          : Casing Collar Locator
AMPMIN.                       : Minimum Sector Amplitude
AMPMAX.                       : Maximum Sector Amplitude
AMPAVG.                       : Average Sector Amplitude
~Parameter Information Block
~A  Depth       LTEN         GR        AMP3FT      TT3FT        CCL        AMPMIN      AMPMAX      AMPAVG   
# ...
  9655.5000   2057.4387     44.0546     21.7399    334.8497      0.0000     25.7680     45.9407     34.6742
  9655.0000   2043.0007     57.2957     22.5047    334.7023      0.0000     27.8243     45.7121     35.8452
  9654.5000   2056.6365     73.6575     22.9348    334.4720      0.0000     28.3407     46.5461     36.7500
  9654.0000   2075.8870     77.6166     23.4763    329.8160      0.0000     28.5347     47.5789     37.4344
  9653.5000   2064.6575     70.4254     24.4689    316.1572      0.0000     30.3349     48.8432     38.9357
  9653.0000   2051.0217     61.3253     25.1690    309.6600      0.0000     32.0775     49.8422     40.1381
  9652.5000   2058.2407     51.0437     26.1989    301.7187      0.0000     34.4229     50.7125     41.8418
  9652.0000   2049.4175     47.9922     27.4788    297.3121      0.0000     36.6146     52.1861     43.8705
  9651.5000   2065.4597     52.7148     28.6868    296.4546      0.0000     39.4839     53.6519     46.1653
  9651.0000   2075.8870     54.0144     28.6571    296.4107      0.0000     40.0072     53.5935     46.7868
  9650.5000   2049.4175     57.3712     28.0877    296.5806      0.0000     37.6634     53.4353     45.5064
  9650.0000   2040.5945     67.3256     27.3998    298.2819      0.0000     35.9882     53.1843     44.0126
  9649.5000   2059.8450     78.4054     24.3513    310.0670      0.0000     32.6746     45.8519     38.7663
  9649.0000   2053.4280     82.9554     19.3390    325.6768      0.0000     23.3244     34.4470     28.5375
  9648.5000   2072.6785     78.6013     13.7058    333.6150      0.0000     14.3414     24.4129     18.8235
  9648.0000   2082.3037     69.4067     10.6586    340.7745      0.0000     12.1681     19.5796     15.5473
  9647.5000   2071.0745     60.2149     10.5407    341.9601      2.0000     12.9949     19.6172     15.9556
  9647.0000   2059.8450     56.8540     13.4192    336.4587      0.0000     16.6517     22.7056     19.3293
  9646.5000   2071.8765     64.3320     24.2448    321.8370      0.0000     30.9235     37.6535     34.1784
  9646.0000   2051.0217     78.4246     26.5604    319.7602      0.0000     35.2637     44.7470     39.6462
  9645.5000   2070.2722     86.0236     25.0142    310.3133      0.0000     34.3493     45.3641     39.2166
  9645.0000   2076.6890     84.7754     27.2430    298.3811      0.0000     38.2278     49.0199     43.4257
  9644.5000   2063.0532     78.8386     27.9519    296.4276      0.0000     39.4314     50.1624     44.9493
  9644.0000   2049.4175     77.0920     28.1485    296.2186      0.0000     39.7336     51.8470     45.5559
  9643.5000   2076.6890     87.8810     28.9180    295.9310      0.0000     41.7779     53.1119     46.9522
  9643.0000   2055.8345     93.7407     29.8082    295.6887      0.0000     44.1876     55.1045     48.7591
  9642.5000   2081.5017     84.6339     29.8581    295.8323      0.0000     43.4371     57.0046     49.0034
  9642.0000   2083.9080     67.9744     29.7355    295.9268      0.0000     42.0089     56.8429     48.5112
  9641.5000   2080.6997     57.5907     29.3299    296.1069      0.0000     41.7311     54.8457     47.5458
  9641.0000   2047.0112     57.0253     28.3051    296.4319      0.0000     40.5513     51.8030     45.6334
  9640.5000   2058.2407     62.5368     27.1863    296.7566      0.0000     38.4052     48.9978     43.4135
  9640.0000   2052.6260     77.8624     26.5129    297.0953      0.0000     36.7281     47.8263     42.0617
  9639.5000   2071.8765     84.2052     25.4874    299.5556      0.0000     34.9646     46.6389     40.5444
  9639.0000   2071.8765     70.9517     24.2331    311.7818      0.0000     32.4004     45.3014     38.6945
  9638.5000   2063.8555     61.3806     23.7152    323.7150      0.0000     32.1928     43.8042     37.6304
  9638.0000   2060.6470     59.2959     24.6003    311.0534      0.0000     33.9368     44.7434     38.8511
  9637.5000   2070.2722     51.8945     25.5589    299.0908      0.0000     34.2835     47.4462     40.5856
  9637.0000   2056.6365     45.4219     25.6066    297.6502      0.0000     34.3190     48.0184     40.9289
  9636.5000   2069.4702     47.0781     25.0771    299.6577      0.0000     34.7899     46.4996     39.8672
  9636.0000   2068.6680     53.9512     24.7371    306.7485      0.0000     35.0297     45.8533     39.3407
  9635.5000   2058.2407     59.3980     24.5667    311.9486      0.0000     33.4916     45.4673     38.9871
  9635.0000   2057.4387     62.8345     24.2294    322.6125      0.0000     32.5643     45.7443     38.2947
  9634.5000   2072.6785     61.2271     23.4585    332.9132      0.0000     30.6859     45.2885     37.1742
  9634.0000   2067.0640     54.9509     22.7701    334.4731      0.0000     29.4580     44.5395     36.3076
  9633.5000   2084.7102     56.0656     22.1091    334.6812      0.0000     27.8271     43.3983     35.1547
  9633.0000   2084.7102     60.5609     22.2959    334.7680      0.0000     28.3855     43.1438     35.5276
  9632.5000   2079.0955     57.8013     22.5895    334.7481      0.0000     29.6874     43.8798     36.0692
  9632.0000   2062.2512     59.3585     22.0477    334.5264      0.0000     28.4517     42.9233     35.1087
  9631.5000   2064.6575     62.3817     21.1719    334.2986      0.0000     25.8063     42.5098     33.6919
  9631.0000   2052.6260     53.2796     19.6782    334.4332      0.0000     23.2529     40.9845     31.2912
  9630.5000   2063.8555     48.9120     18.7235    334.5984      0.0000     22.3795     39.0263     29.6705
  9630.0000   2078.2932     59.4146     18.9849    334.3001      0.0000     23.4625     37.9769     30.0063
  9629.5000   2065.4597     64.3054     18.7346    333.8839      0.0000     22.6932     37.0250     29.4540
  9629.0000   2049.4175     63.6600     18.4400    333.9268      0.0000     22.5901     37.0136     29.0837
  9628.5000   2062.2512     68.6534     19.2559    334.0853      0.0000     24.3305     37.8735     30.3862
  9628.0000   2054.2302     78.2989     20.1642    334.0735      0.0000     25.5416     38.0133     31.4347
  9627.5000   2075.8870     80.9050     20.3333    333.9729      0.0000     26.4969     38.0547     31.9728
  9627.0000   2079.8975     71.3216     20.7202    334.2095      0.0000     27.9978     38.2162     32.6454
  9626.5000   2049.4175     61.6946     21.4372    334.4232      0.0000     28.7994     39.7848     33.8937
  9626.0000   2055.0322     62.6090     21.6767    334.4239      0.0000     29.2700     39.9356     34.3954
  9625.5000   2070.2722     64.7125     21.9423    334.4419      0.0000     29.6458     40.5316     34.9958
  9625.0000   2056.6365     64.8497     22.5895    334.6713      0.0000     31.0624     42.3319     36.3059
  9624.5000   2079.8975     62.2714     23.1829    334.8654      0.0000     31.3922     43.4769     36.8881
  9624.0000   2083.9080     55.3507     22.8286    334.5841      0.0000     29.4640     43.1904     35.8723
  9623.5000   2070.2722     52.9648     21.3609    334.2484      0.0000     27.5043     40.4017     33.7273
  9623.0000   2053.4280     61.2402     20.3792    334.3257      0.0000     27.4836     38.8075     32.7176
  9622.5000   2067.8660     70.0450     20.2672    334.4552      0.0000     27.8807     37.8573     32.5129
  9622.0000   2057.4387     74.5851     21.0804    334.4365      0.0000     29.0480     38.9812     33.5969
  9621.5000   2083.1060     74.5411     22.4914    334.3355      0.0000     30.0121     41.7755     35.5511
  9621.0000   2075.8870     75.2997     23.3032    330.3505      0.0000     30.1624     44.6446     36.7589
  9620.5000   2049.4175     75.9640     24.2272    319.4748      0.0000     31.7294     47.4443     38.5572
  9620.0000   2049.4175     72.0428     25.4704    307.2307      0.0000     33.8815     49.0598     40.7047
  9619.5000   2049.4175     72.7210     27.4610    298.1024      0.0000     36.7774     51.3124     43.8636
  9619.0000   2049.4175     77.4281     28.6696    296.1768      0.0000     39.2928     53.0798     46.0815
  9618.5000   2074.2827     83.0437     28.5706    296.1997      0.0000     40.4461     52.4377     46.0614
