~Version Information
VERS.                      2.0: CWLS Log ASCII Standard - VERSION 2.0
WRAP.                       NO: One line per depth step
~Well Information Block
STRT.FT                17.0000: 
STOP.FT             10431.5000: 
STEP.FT                 0.5000: 
NULL.                -999.2500: 
COMP.          WPX ENERGY WILLISTON, LLC: COMPANY
WELL.          OTTER WOMAN 34-27HG: WELL
FLD.                  MANDAREE: FIELD
LOC.           LOT2--247' FNL & 2311' FEL: LOCATION
CNTY.                     DUNN: COUNTY
SRVC.                         : SERVICE COMPANY
DATE.          Fri Jun 15 18-22-46 2018: LOG DATE
UWI.              33-025-03337: UNIQUE WELL ID
STAT.                N. DAKOTA: STATE
~Curve Information Block
DEPT.FT            0 000 00 00: Depth
LTEN.lb                       : Surface Line Tension
GR.GAPI                       : Gamma Ray
AMP3FT.mV                     : AMP3FT Amplitude
TT3FT.usec                    : 3FT Travel Time
AMPMIN.                       : Minimum Sector Amplitude
AMPMAX.                       : Maximum Sector Amplitude
AMPAVG.                       : Average Sector Amplitude
CCL.                          : Casing Collar Locator
~Parameter Information Block
~A  Depth       LTEN         GR        AMP3FT      TT3FT       AMPMIN      AMPMAX      AMPAVG       CCL     
# ...
 10404.5000   2280.7090     25.5490     47.0359    248.5815     71.0608     94.0712     80.6437      0.0000
 10405.0000   2275.9607     33.4086     47.2495    248.7921     70.4359     93.7472     80.0313      0.0000
 10405.5000   2269.6296     43.2503     44.9374    249.2970     65.2187     86.8279     75.2908      0.0000
 10406.0000   2276.7522     40.2459     38.1656    251.5892     54.5242     72.0369     63.9586      0.0000
 10406.5000   2272.7952     34.2769     31.9252    254.9758     45.1103     62.4246     53.1185      0.0000
 10407.0000   2263.2986     31.7843     34.6780    254.3087     50.9884     63.2007     57.3317      0.0000
 10407.5000   2271.2124     33.9244     38.5603    253.4048     58.7870     66.8859     63.5811     -2.0000
 10408.0000   2272.0039     49.4304     38.4576    253.2744     58.8238     66.9547     63.0117      0.0000
 10408.5000   2269.6296     66.1179     36.1168    253.9135     54.9327     63.4995     59.3912      0.0000
 10409.0000   2287.0400     60.0955     38.5616    253.0766     59.9740     67.8325     63.9500      0.0000
 10409.5000   2290.2056     40.5494     45.2102    250.0638     70.2813     80.4762     75.0502      0.0000
 10410.0000   2278.3350     29.7321     50.2705    248.9379     78.3559     90.2567     84.1178      0.0000
 10410.5000   2273.5867     26.3961     50.6833    249.2066     79.2915     91.2712     85.3634      0.0000
 10411.0000   2272.7952     26.5821     50.4015    249.4133     79.2345     90.7853     84.8130      0.0000
 10411.5000   2259.3416     33.7124     50.6950    249.3273     79.6817     91.1441     85.4896      0.0000
 10412.0000   2267.2556     42.2525     50.1879    249.4333     78.1108     90.6860     84.6458      0.0000
 10412.5000   2269.6296     44.3187     50.5734    249.1561     78.7230     90.1545     84.3883      0.0000
 10413.0000   2247.4709     40.4967     50.9138    249.0014     79.5140     89.9726     84.1833      0.0000
 10413.5000   2245.0967     34.8468     50.4386    249.3683     79.6440     90.1742     83.8620      0.0000
 10414.0000   2232.4346     31.3229     50.4043    249.8304     78.9548     91.2486     84.1883   -999.2500
 10414.5000   2241.9312     29.5029     49.9129    249.6807     78.2183     88.6423     82.5889   -999.2500
 10415.0000   2251.4277     32.2819     48.5874    249.4599     74.5734     86.4187     80.5582   -999.2500
 10415.5000   2254.5933     35.6629     48.0613    249.2178     75.4898     85.9711     80.5510   -999.2500
 10416.0000   2254.5933     36.3696     47.9815    249.3824     75.9119     86.0893     80.7288   -999.2500
 10416.5000   2266.4641     35.7395     47.5135    249.4302     73.2754     84.8194     79.0928   -999.2500
 10417.0000   2276.7522     34.5152     46.5028    249.4288     71.7719     84.2406     77.7101   -999.2500
 10417.5000   2283.0833     36.6211     46.7704    249.6042     72.2345     85.1229     77.7350   -999.2500
 10418.0000   2283.8745     39.3064     47.4558    249.4477     72.8487     84.6040     78.1092   -999.2500
 10418.5000   2284.6660     41.7014     47.7596    249.4528     72.6965     84.6565     78.5432   -999.2500
 10419.0000   2267.2556     44.6969     47.6836    249.4786     72.5520     84.2379     78.4200   -999.2500
 10419.5000   2269.6296     42.4995     47.5165    249.5733     72.6883     83.9876     78.1847   -999.2500
 10420.0000   2254.5933     38.5069     47.6019    249.5782     73.8596     83.9947     78.6080   -999.2500
 10420.5000   2262.5071     40.0567     47.7437    249.5775     75.0563     83.7822     79.0378   -999.2500
 10421.0000   2277.5435     41.7696     48.6237    249.6135     76.3111     84.8599     80.2897   -999.2500
 10421.5000   2290.9971     42.5982     58.1810    243.6409     92.2699     98.6633     95.3012   -999.2500
 10422.0000   2268.8384     43.8145     61.0344    170.7918     97.2344     99.5226     98.2458   -999.2500
 10422.5000   2261.7158     39.8173     21.0123     43.7249     31.5554     32.6668     31.9123   -999.2500
 10423.0000   2263.2986     33.0240      2.6988      2.5420      1.9078      1.9839      1.9394   -999.2500
 10423.5000   2250.6365     25.7308      1.4447      0.0266     -0.1191     -0.0988     -0.1063   -999.2500
 10424.0000   2258.5503     20.0785   -999.2500   -999.2500   -999.2500   -999.2500   -999.2500   -999.2500
 10424.5000   2254.5933     20.6633   -999.2500   -999.2500   -999.2500   -999.2500   -999.2500   -999.2500
 10425.0000   2254.5933     28.0194   -999.2500   -999.2500   -999.2500   -999.2500   -999.2500   -999.2500
 10425.5000   2254.5933     36.5892   -999.2500   -999.2500   -999.2500   -999.2500   -999.2500   -999.2500
 10426.0000   2236.3916     41.3789   -999.2500   -999.2500   -999.2500   -999.2500   -999.2500   -999.2500
 10426.5000   2247.4709     41.7471   -999.2500   -999.2500   -999.2500   -999.2500   -999.2500   -999.2500
 10427.0000   2283.0833     39.7082   -999.2500   -999.2500   -999.2500   -999.2500   -999.2500   -999.2500
 10427.5000   2284.6660     37.7606   -999.2500   -999.2500   -999.2500   -999.2500   -999.2500   -999.2500
 10428.0000   2271.2124     35.3119   -999.2500   -999.2500   -999.2500   -999.2500   -999.2500   -999.2500
 10428.5000   2268.8384     34.2164   -999.2500   -999.2500   -999.2500   -999.2500   -999.2500   -999.2500
 10429.0000   2271.2124     31.3412   -999.2500   -999.2500   -999.2500   -999.2500   -999.2500   -999.2500
 10429.5000   2233.2258     24.7356   -999.2500   -999.2500   -999.2500   -999.2500   -999.2500   -999.2500
 10430.0000   2229.2690     13.4335   -999.2500   -999.2500   -999.2500   -999.2500   -999.2500   -999.2500
 10430.5000   2198.4050      3.6358   -999.2500   -999.2500   -999.2500   -999.2500   -999.2500   -999.2500
 10431.0000   2150.1306      0.4130   -999.2500   -999.2500   -999.2500   -999.2500   -999.2500   -999.2500
 10431.5000   2102.6475      0.0184   -999.2500   -999.2500   -999.2500   -999.2500   -999.2500   -999.2500
