~Version Information
VERS.                      2.0: CWLS Log ASCII Standard - VERSION 2.0
WRAP.                       NO: One line per depth step
~Well Information Block
STRT.FT             10330.5000: 
STOP.FT                16.5000: 
STEP.FT                -0.5000: 
NULL.                -999.2500: 
COMP.          WPX ENERGY WILLISTON, LLC: COMPANY
WELL.          OTTER WOMAN 34-27HP: WELL
FLD.                  MANDAREE: FIELD
LOC.           LOT2--249' FNL & 2281' FEL: LOCATION
CNTY.                     DUNN: COUNTY
SRVC.                         : SERVICE COMPANY
DATE.          Fri Jun 15 11-35-34 2018: LOG DATE
UWI.              33-025-03338: UNIQUE WELL ID
STAT.                       ND: STATE
~Curve Information Block
DEPT.FT            0 000 00 00: Depth
LTEN.lb                       : Surface Line Tension
GR.GAPI                       : Gamma Ray
AMP3FT.mV                     : AMP3FT Amplitude
TT3FT.usec                    : 3FT Travel Time
CCL.                          : Casing Collar Locator
AMPMIN.                       : Minimum Sector Amplitude
AMPMAX.                       : Maximum Sector Amplitude
AMPAVG.                       : Average Sector Amplitude
~Parameter Information Block
~A  Depth       LTEN         GR        AMP3FT      TT3FT        CCL        AMPMIN      AMPMAX      AMPAVG   
 10330.5000   2211.4424     36.0525    171.5927    256.7748      0.0000    124.7390    251.5473    176.5237
 10330.0000   2224.2759     36.5182    171.5927    257.0105      0.0000    124.4833    251.4863    176.1485
 10329.5000   2220.2654     42.8538    171.5927    257.0509      0.0000    127.6523    249.9736    176.1215
 10329.0000   2238.7139     56.2928    171.5927    256.9114      0.0000    130.2793    248.0665    176.1064
 10328.5000   2240.3181     63.6099    171.5927    256.9125      0.0000    132.6767    247.0731    176.3909
 10328.0000   2213.8486     58.1194    171.5927    256.9827      0.0000    133.3118    246.7023    176.2242
 10327.5000   2193.7961     51.6819    171.5927    256.9573      0.0000    134.1858    246.2073    176.1092
 10327.0000   2204.2234     48.0559    171.5927    256.8637     -2.0000    137.8939    245.2331    177.2796
 10326.5000   2191.3896     50.2961    171.5828    256.9038      0.0000    139.0634    242.3165    176.0223
 10326.0000   2211.4424     62.9212    170.6210    257.1025      0.0000    137.8247    236.2989    172.3345
 10325.5000   2217.8591     74.0847    154.4478    259.9540      0.0000    125.7872    204.5960    152.5021
 10325.0000   2205.0254     70.3294    102.6723    275.0026      0.0000     69.0933    112.9952     82.5191
 10324.5000   2202.6191     56.8549     62.4760    287.7380      0.0000     28.9399     53.8627     35.8000
 10324.0000   2203.4214     51.6413     33.0180    292.8116      0.0000     18.1036     26.2961     19.5122
 10323.5000   2197.0044     49.5321     25.5244    306.9046      0.0000     10.9032     16.4911     12.0992
 10323.0000   2231.4949     46.5092     22.6652    311.4250     -2.0000      4.0251     10.3836      6.8569
 10322.5000   2232.2969     58.8027     23.2522    311.6467     -2.0000      1.7684     12.9369      5.3515
 10322.0000   2208.2339     68.7517     23.7917    311.3657      0.0000     -1.8248     12.0306      2.6757
 10321.5000   2192.9939     62.2526     15.8899    314.6135      0.0000      3.3109     10.2003      6.8541
 10321.0000   2193.7961     54.5552     16.8644    326.4320      0.0000     13.6422     18.4197     16.0127
 10320.5000   2193.7961     55.7207     24.0228    329.9872      0.0000     22.2367     33.9316     27.4525
 10320.0000   2216.2549     59.7387     31.7332    321.3544      0.0000     22.3196     30.9503     26.6943
 10319.5000   2221.0676     64.9839     25.6719    325.8285      0.0000     18.9479     24.1456     21.2401
 10319.0000   2214.6506     67.7677     19.4350    333.1140      0.0000     18.8899     22.8154     20.8337
 10318.5000   2211.4424     63.4682     15.4991    344.9009      0.0000     12.4151     18.2361     14.7260
 10318.0000   2205.8276     58.2541     14.1210    352.0338      0.0000     10.1677     16.5776     13.3168
 10317.5000   2205.0254     50.6727     12.2702    358.6070      0.0000      9.2324     15.8777     12.3495
 10317.0000   2209.0361     47.7803      7.5870    350.8740      0.0000      5.5082     10.5557      8.4334
 10316.5000   2220.2654     52.9002      8.1742    335.7187     -2.0000      7.1916     12.2241     10.1138
 10316.0000   2201.8171     51.7933     10.1170    325.4635     -2.0000     12.9903     15.3080     14.4514
 10315.5000   2187.3792     45.2837     10.5186    324.3788      0.0000     14.2839     15.8199     15.0768
 10315.0000   2190.5876     38.8778     10.9707    326.0924      2.0000     14.8506     16.7765     15.7875
 10314.5000   2181.7644     39.2492     10.6415    328.6614      0.0000     14.6583     16.2847     15.4401
 10314.0000   2207.4319     48.5673     10.2510    338.5569      0.0000     13.7846     15.7932     14.7977
 10313.5000   2201.8171     55.8886     11.1902    346.4289      0.0000     15.5025     17.4537     16.2205
 10313.0000   2182.5667     57.3849     14.5902    335.7963      0.0000     20.9367     23.4614     22.1859
 10312.5000   2181.7644     58.1719     16.1209    330.1841      0.0000     23.4216     26.1924     24.9392
 10312.0000   2176.1499     56.2710     16.2956    330.0810      0.0000     23.5296     26.6457     25.1286
 10311.5000   2185.7751     56.8159     15.9233    330.0617      0.0000     21.8808     27.2975     24.3928
 10311.0000   2195.4004     57.7311     15.8328    330.9671      0.0000     20.8532     28.4477     24.1107
 10310.5000   2212.2444     63.4707     16.3170    331.3826      0.0000     20.4844     29.4930     24.5621
 10310.0000   2197.8066     73.8895     16.7196    331.4461      0.0000     21.0219     29.6998     25.2152
 10309.5000   2185.7751     66.3421     16.7488    331.4242      0.0000     20.9839     30.3631     25.4013
 10309.0000   2185.7751     54.5081     16.8733    331.4249      0.0000     20.6806     32.2365     25.7441
 10308.5000   2192.1919     55.4393     16.8404    331.3719      0.0000     20.0766     34.3159     26.0763
 10308.0000   2209.0361     56.3643     16.8711    331.3816      0.0000     19.5978     35.8764     26.3647
 10307.5000   2209.0361     52.5279     18.3418    331.6955      0.0000     20.7749     39.3123     28.6502
 10307.0000   2178.5562     51.1042     19.2275    331.9231      0.0000     21.5856     41.2168     30.1078
 10306.5000   2174.5457     53.6189     19.5536    331.9345      0.0000     22.0251     42.3694     30.7822
 10306.0000   2182.5667     54.8360     19.9692    331.9675      0.0000     21.9806     44.2391     31.5817
 10305.5000   2179.3582     52.9802     20.5579    331.9603      0.0000     23.0693     46.3165     32.8095
 10305.0000   2207.4319     49.2476     20.4965    332.2126      0.0000     23.1886     46.4661     32.7963
 10304.5000   2209.0361     41.9502     19.6928    332.6255      0.0000     22.2936     44.2730     31.4283
 10304.0000   2202.6191     39.6837     18.7390    332.9243      0.0000     20.6473     41.1652     29.7041
 10303.5000   2188.1814     47.6290     18.2261    333.0355      0.0000     19.6364     39.7024     28.4554
 10303.0000   2190.5876     56.7526     17.5111    333.0689      0.0000     19.4942     37.5709     27.1377
 10302.5000   2185.7751     64.9980     16.8527    333.0898      0.0000     19.1052     36.0945     26.1586
 10302.0000   2222.6719     76.4684     16.6932    333.2303      0.0000     19.6504     34.9614     25.8188
 10301.5000   2210.6401     77.7819     15.5047    333.6014      0.0000     17.8117     33.0383     24.3030
 10301.0000   2197.8066     73.5755     14.5177    333.8992      0.0000     16.0007     30.9065     22.6479
 10300.5000   2174.5457     76.2629     14.2717    334.0407      0.0000     16.4524     29.0985     22.0937
 10300.0000   2176.1499     79.8834     14.4044    334.1178      0.0000     17.4644     28.6200     22.3449
 10299.5000   2185.7751     79.0025     13.7524    334.2060      0.0000     17.4895     26.5396     21.3029
 10299.0000   2198.6086     74.0541     12.4275    334.3495      0.0000     15.9685     22.8208     18.9488
 10298.5000   2189.7856     75.0808     11.5746    334.5146      0.0000     15.3219     20.0236     17.3160
 10298.0000   2183.3687     72.6848     11.7428    334.4812      0.0000     15.7202     19.3735     17.3648
 10297.5000   2172.1394     62.4927     10.7191    334.7520      0.0000     14.3426     17.3892     15.5972
 10297.0000   2166.5247     57.3790      9.8488    334.2371      0.0000     12.8147     15.6022     14.0390
 10296.5000   2180.9624     57.3822      9.4808    332.6027      0.0000     12.9164     13.6837     13.3722
 10296.0000   2195.4004     57.4794      9.8116    331.0596      0.0000     13.8338     15.1622     14.4173
 10295.5000   2192.1919     68.0556     10.8279    329.7549      0.0000     14.8204     17.5652     16.2448
 10295.0000   2188.9834     81.4416     12.2293    328.7076      0.0000     15.7982     20.9249     18.3564
 10294.5000   2178.5562     78.1149     13.7465    327.2308      0.0000     17.0629     24.7263     20.8327
 10294.0000   2184.9729     69.5076     16.8828    329.8458      0.0000     24.5213     27.8375     26.0885
 10293.5000   2196.2024     72.3107     14.9460    347.7475      0.0000     21.0399     23.7186     22.2175
