~Version Information
VERS.                      2.0: CWLS Log ASCII Standard - VERSION 2.0
WRAP.                       NO: One line per depth step
~Well Information Block
STRT.FT                17.0000: 
STOP.FT             10431.5000: 
STEP.FT                 0.5000: 
NULL.                -999.2500: 
COMP.          WPX ENERGY WILLISTON, LLC: COMPANY
WELL.          OTTER WOMAN 34-27HG: WELL
FLD.                  MANDAREE: FIELD
LOC.           LOT2--247' FNL & 2311' FEL: LOCATION
CNTY.                     DUNN: COUNTY
SRVC.                         : SERVICE COMPANY
DATE.          Fri Jun 15 18-22-46 2018: LOG DATE
UWI.              33-025-03337: UNIQUE WELL ID
STAT.                N. DAKOTA: STATE
~Curve Information Block
DEPT.FT            0 000 00 00: Depth
LTEN.lb                       : Surface Line Tension
GR.GAPI                       : Gamma Ray
AMP3FT.mV                     : AMP3FT Amplitude
TT3FT.usec                    : 3FT Travel Time
AMPMIN.                       : Minimum Sector Amplitude
AMPMAX.                       : Maximum Sector Amplitude
AMPAVG.                       : Average Sector Amplitude
CCL.                          : Casing Collar Locator
~Parameter Information Block
~A  Depth       LTEN         GR        AMP3FT      TT3FT       AMPMIN      AMPMAX      AMPAVG       CCL     
# ...
  8342.0000   1742.5673     75.4409     23.8408    289.6076     36.0825     41.1892     38.7918      0.0000
  8342.5000   1739.4017     91.5479     23.7470    289.8119     36.7566     39.8253     38.2946      0.0000
  8343.0000   1748.1071    104.1404     24.0447    290.0085     36.8102     41.2581     38.5594      0.0000
  8343.5000   1759.9778     94.7947     25.4743    289.6397     38.7301     42.8577     40.4586      0.0000
  8344.0000   1757.6036     79.2465     26.8448    289.3594     40.6975     43.7539     42.4146      0.0000
  8344.5000   1742.5673     64.6754     27.8994    289.3331     43.0883     45.3894     44.3344      0.0000
  8345.0000   1748.8984     57.3730     29.3772    289.5254     45.4026     47.2755     46.4357      0.0000
  8345.5000   1738.6104     60.4784     30.4078    289.6379     46.2465     49.3747     47.8417      0.0000
  8346.0000   1753.6467     65.8187     30.2811    289.2336     47.0325     51.5855     48.8336      0.0000
  8346.5000   1753.6467     67.9035     30.3170    288.9680     48.8461     52.8939     50.5261      0.0000
  8347.0000   1734.6534     70.1175     31.1943    288.8363     49.9751     54.5628     52.2191      0.0000
  8347.5000   1734.6534     65.2385     30.9805    288.8190     48.9029     54.1158     51.5197      0.0000
  8348.0000   1742.5673     54.9671     28.2983    289.0698     42.9409     51.0643     47.2991      0.0000
  8348.5000   1744.9415     58.1993     25.6135    289.3641     37.5932     47.6129     43.3662      0.0000
  8349.0000   1759.1864     66.1552     24.8585    289.6200     34.9775     44.2582     40.0401      0.0000
  8349.5000   1761.5605     69.1613     23.2844    289.9933     33.8512     41.6764     38.0072      0.0000
  8350.0000   1752.8553     82.0924     22.9925    289.7346     33.1708     41.9666     37.5975      0.0000
  8350.5000   1738.6104    100.5840     23.7989    289.2604     33.5592     41.8047     37.8168      0.0000
  8351.0000   1738.6104    100.5854     24.4244    289.2568     35.9451     41.2815     38.6402      0.0000
  8351.5000   1738.6104     93.9363     24.4272    289.4335     36.4203     41.7864     38.9324      0.0000
  8352.0000   1739.4017     95.9672     24.5823    289.2588     36.6190     42.2832     39.3026      0.0000
  8352.5000   1755.2295    101.4702     25.5644    288.9164     37.2820     43.0625     40.4016      0.0000
  8353.0000   1742.5673     97.6591     27.0276    288.8903     38.1392     45.1061     42.0988      0.0000
  8353.5000   1739.4017     86.0506     27.3713    288.7366     38.8426     47.9870     43.3405      0.0000
  8354.0000   1744.9415     78.9283     26.4440    288.9688     38.8776     48.3605     43.1640      0.0000
  8354.5000   1738.6104     77.8232     25.6436    289.4316     36.5816     47.3784     42.4361      0.0000
  8355.0000   1742.5673     77.9015     26.1790    289.6429     35.1152     48.5966     42.2934      0.0000
  8355.5000   1757.6036     67.9274     27.2695    289.5996     36.5645     51.1187     43.7380      0.0000
  8356.0000   1752.8553     59.5051     28.5707    289.6732     38.8331     52.8402     45.0337      0.0000
  8356.5000   1738.6104     68.9861     29.5613    291.0936     41.6343     53.2543     47.1814      0.0000
  8357.0000   1738.6104     77.9161     33.0383    294.4838     48.1053     60.8323     53.8002      0.0000
  8357.5000   1738.6104     71.4498     29.1325    297.2402     41.3703     52.9415     46.3600      0.0000
  8358.0000   1750.4812     57.6815     21.8512    296.8944     31.0527     37.1757     33.8780      0.0000
  8358.5000   1751.2726     52.6718     20.3524    296.2665     29.2967     35.8698     32.7187      0.0000
  8359.0000   1752.8553     54.3999     19.9678    296.1232     26.6494     35.8085     31.9958      0.0000
  8359.5000   1738.6104     58.1939     22.5642    296.8772     29.0299     38.7733     35.2703      0.0000
  8360.0000   1738.6104     71.3662     27.8319    294.5382     39.6493     48.2713     44.7440      0.0000
  8360.5000   1738.6104     88.5342     27.5905    290.9816     42.0295     45.3754     43.8882      0.0000
  8361.0000   1768.6830     88.4629     28.1082    288.7688     42.0720     46.7075     44.4711      0.0000
  8361.5000   1763.1433     78.1424     26.9713    288.2982     39.6400     46.2328     43.2164      0.0000
  8362.0000   1756.8123     77.0131     26.2686    288.5477     38.2684     44.7349     42.0357      0.0000
  8362.5000   1746.5243     73.6713     26.7206    288.8164     39.7335     45.3865     43.1609      0.0000
  8363.0000   1747.3157     76.0870     27.1362    289.1017     41.0673     48.6208     45.1641      0.0000
  8363.5000   1736.2362     79.5803     27.0039    289.1947     41.0146     50.4373     45.5055      0.0000
  8364.0000   1741.7759     69.5166     27.5637    288.7858     40.3767     53.2382     45.8777      0.0000
  8364.5000   1766.3088     59.8919     27.1523    288.9102     39.4767     50.5720     44.6088      0.0000
  8365.0000   1747.3157     71.6124     26.8121    289.0358     37.3603     48.0808     42.9785      0.0000
  8365.5000   1742.5673     93.1321     26.9677    288.9854     36.8136     48.2175     42.8389      0.0000
  8366.0000   1742.5673    105.9957     27.2502    289.1140     37.1413     47.8206     43.2073      0.0000
  8366.5000   1742.5673    120.5737     27.3869    289.3776     36.3530     46.3848     41.8558      0.0000
  8367.0000   1747.3157    138.1333     26.9813    289.6693     35.2925     45.5976     41.3358      0.0000
  8367.5000   1761.5605    136.1119     27.2618    289.3663     37.2205     46.5863     42.5559      0.0000
  8368.0000   1761.5605    111.9191     27.1495    288.8403     36.5537     46.0448     42.2323      0.0000
  8368.5000   1750.4812     87.1299     26.1282    288.8911     35.8541     44.2211     40.5413      0.0000
  8369.0000   1757.6036     81.2823     25.3746    289.1104     36.8970     43.4524     40.2423      0.0000
  8369.5000   1758.3950     95.9255     25.5922    288.6727     38.2607     43.8403     40.9205      0.0000
  8370.0000   1762.3519    116.7090     25.0091    288.9479     38.4362     43.7163     40.9870      0.0000
  8370.5000   1773.4313    117.0949     25.2201    289.2401     37.9161     43.9107     41.2884      0.0000
  8371.0000   1746.5243     94.6709     26.2341    289.1095     38.4914     45.7188     42.6484      0.0000
  8371.5000   1742.5673     81.2186     26.5921    289.2011     42.0961     47.2574     44.3838      0.0000
  8372.0000   1751.2726     88.6613     27.7041    289.1158     42.2852     47.7594     45.1444      0.0000
  8372.5000   1746.5243     96.2518     28.7086    288.6897     43.0899     47.9755     45.3994      0.0000
  8373.0000   1765.5175     90.7180     28.5319    288.5727     39.6283     47.8328     44.2792      0.0000
  8373.5000   1767.8916     80.4481     27.2081    288.8698     38.3490     47.5689     42.3467      0.0000
  8374.0000   1752.8553     83.1431     25.0627    289.5048     34.9501     44.7292     39.3567      0.0000
  8374.5000   1753.6467     93.2301     23.6708    289.9714     34.6489     41.8565     37.6379      0.0000
  8375.0000   1754.4381     89.9867     24.3415    289.7332     37.5459     40.7225     38.5845      0.0000
  8375.5000   1746.5243     80.6581     25.3191    289.3687     38.4187     40.8609     39.7548      0.0000
  8376.0000   1760.7692     78.1274     26.0340    288.7108     38.4310     42.4086     41.1055      0.0000
  8376.5000   1769.4744     72.5637     27.4093    288.0807     40.5380     45.5562     43.3307      0.0000
  8377.0000   1745.7329     63.9956     29.1488    287.6587     41.4823     49.1117     46.1541      0.0000
  8377.5000   1752.8553     59.8221     30.1262    287.7626     44.2786     50.7266     47.9874      0.0000
  8378.0000   1739.4017     58.7950     30.3650    288.3145     45.8344     52.0969     49.3444      0.0000
  8378.5000   1745.7329     56.4959     31.2572    288.6089     47.1912     54.8155     50.1485      0.0000
  8379.0000   1755.2295     57.5138     32.5903    288.4913     46.6119     55.5022     50.3350      0.0000
