~Version Information
VERS.                      2.0: CWLS Log ASCII Standard - VERSION 2.0
WRAP.                       NO: One line per depth step
~Well Information Block
STRT.FT                17.0000: 
STOP.FT             10431.5000: 
STEP.FT                 0.5000: 
NULL.                -999.2500: 
COMP.          WPX ENERGY WILLISTON, LLC: COMPANY
WELL.          OTTER WOMAN 34-27HG: WELL
FLD.                  MANDAREE: FIELD
LOC.           LOT2--247' FNL & 2311' FEL: LOCATION
CNTY.                     DUNN: COUNTY
SRVC.                         : SERVICE COMPANY
DATE.          Fri Jun 15 18-22-46 2018: LOG DATE
UWI.              33-025-03337: UNIQUE WELL ID
STAT.                N. DAKOTA: STATE
~Curve Information Block
DEPT.FT            0 000 00 00: Depth
LTEN.lb                       : Surface Line Tension
GR.GAPI                       : Gamma Ray
AMP3FT.mV                     : AMP3FT Amplitude
TT3FT.usec                    : 3FT Travel Time
AMPMIN.                       : Minimum Sector Amplitude
AMPMAX.                       : Maximum Sector Amplitude
AMPAVG.                       : Average Sector Amplitude
CCL.                          : Casing Collar Locator
~Parameter Information Block
~A  Depth       LTEN         GR        AMP3FT      TT3FT       AMPMIN      AMPMAX      AMPAVG       CCL     
# ...
  2792.0000    682.1116    131.0414     43.8314    288.0659     65.2042     75.4686     70.3942      0.0000
  2792.5000    663.9097    111.9868     42.1808    287.8574     60.6302     73.2642     68.0125      0.0000
  2793.0000    690.8168    104.7242     41.9710    287.6128     61.6338     72.5092     67.5994      0.0000
  2793.5000    678.1547    110.1416     41.6604    287.6299     62.6765     72.4926     67.2006      0.0000
  2794.0000    684.4857    122.0711     41.4435    287.5035     61.4260     72.3612     66.5371      0.0000
  2794.5000    705.0617    130.4600     40.9649    287.8213     60.6034     70.9171     65.4380      0.0000
  2795.0000    686.8599    136.4056     40.3535    288.1284     61.4907     70.3603     65.2953      0.0000
  2795.5000    684.4857    128.7733     40.8348    287.9053     61.3961     70.4967     65.2857      0.0000
  2796.0000    701.8962    102.6210     41.5266    287.8546     59.8170     71.9355     65.4794      0.0000
  2796.5000    674.9891     89.0366     41.2399    287.8309     59.8518     73.6698     66.4290      0.0000
  2797.0000    690.0254     87.0406     40.8715    287.3266     60.0105     76.8678     67.1380      0.0000
  2797.5000    694.7737     79.2500     41.4531    287.3208     61.5179     75.4214     67.1523      0.0000
  2798.0000    697.1479     80.5198     42.3500    287.7155     61.6745     73.9110     66.9147      0.0000
  2798.5000    690.8168     85.5413     41.8783    287.8676     60.8957     74.1036     66.9427      0.0000
  2799.0000    702.6876     87.9344     41.2441    287.6112     58.3231     73.5394     65.9886      0.0000
  2799.5000    676.5719     97.6528     40.4334    287.7584     56.0071     73.8302     64.8105      0.0000
  2800.0000    682.1116    102.3405     39.4870    287.7173     54.2497     73.3061     63.8576      0.0000
  2800.5000    701.1048     90.1998     38.7783    287.6062     54.5728     71.4571     62.7504      0.0000
  2801.0000    701.8962     78.5673     38.5248    287.4431     54.8924     69.5881     61.9036      0.0000
  2801.5000    690.8168     88.4935     38.1324    287.1831     54.0638     68.3814     61.3419      0.0000
  2802.0000    698.7307     99.6493     38.0480    287.1728     54.6576     68.4669     61.4784      0.0000
  2802.5000    667.8666     87.9399     38.8027    287.6339     56.0788     68.9320     62.5182      0.0000
  2803.0000    675.7805     75.7040     38.5754    288.0483     56.8267     69.7738     62.7307      0.0000
  2803.5000    699.5220     87.1282     37.9830    288.0533     57.4561     69.1941     62.1056      0.0000
  2804.0000    699.5220    112.9178     36.1143    289.8496     52.5736     60.5442     56.4937      0.0000
  2804.5000    679.7374    134.5838     33.4151    295.3512     46.6486     57.0345     52.0009      0.0000
  2805.0000    678.9460    136.6822     29.2316    298.4613     41.6068     51.8929     47.1491      0.0000
  2805.5000    678.1547    126.4687     26.1803    297.2655     36.4696     44.8653     40.9461      0.0000
  2806.0000    689.2340    120.8982     27.4817    296.2169     37.7795     48.8282     42.3498     -2.0000
  2806.5000    706.6445    117.8092     26.5216    296.3954     37.1192     45.9674     41.0600      0.0000
  2807.0000    690.8168    108.5429     27.7871    297.1466     40.2209     48.4359     43.1703      0.0000
  2807.5000    683.6943     97.3572     34.2590    293.7479     50.2065     63.4272     54.1293      0.0000
  2808.0000    701.8962     89.3005     39.5405    289.1953     56.4098     71.0798     62.4229      0.0000
  2808.5000    680.5288     89.7969     43.4098    287.9068     61.7086     76.3224     68.4219      0.0000
  2809.0000    697.9393    106.9281     43.1043    287.6395     61.6006     77.3885     68.5784      0.0000
  2809.5000    709.8101    136.5641     42.5946    287.6293     61.4641     76.9612     68.0453      0.0000
  2810.0000    695.5651    154.8864     42.2978    287.6539     61.2127     77.4375     68.3783      0.0000
  2810.5000    685.2771    143.9669     42.3743    287.7379     60.0920     77.8997     68.1529      0.0000
  2811.0000    701.8962    126.6184     42.5069    287.5247     59.9771     79.5730     68.9948      0.0000
  2811.5000    675.7805    127.0623     42.7095    287.2796     62.3041     81.2903     70.2816      0.0000
  2812.0000    709.0187    135.9789     43.5141    287.3856     64.1082     81.3756     71.2061      0.0000
  2812.5000    716.9325    139.0272     44.2819    287.5118     64.6804     79.3474     71.2430      0.0000
  2813.0000    701.8962    128.3857     44.6197    287.6173     65.2321     79.1311     71.8844      0.0000
  2813.5000    683.6943    117.0711     45.3427    287.6583     64.7729     80.5296     73.1253      0.0000
  2814.0000    698.7307    112.1510     46.1939    287.4624     64.2593     80.8931     73.8063      0.0000
  2814.5000    683.6943    103.4829     46.5472    287.4896     67.1743     82.1368     74.6189      0.0000
  2815.0000    709.0187    102.4554     46.8611    287.4590     66.8732     83.7001     75.5104      0.0000
  2815.5000    706.6445    109.2901     46.9667    287.6142     68.7923     84.5716     76.4542      0.0000
  2816.0000    693.9824    106.6424     48.1138    287.7380     71.7382     85.6537     77.4777      0.0000
  2816.5000    682.9030    105.2853     48.2928    287.7024     72.3624     86.5240     78.2740      0.0000
  2817.0000    698.7307    108.1628     48.1852    287.6017     72.8084     86.1215     78.7556      0.0000
  2817.5000    680.5288    100.9277     48.3655    287.5930     73.8216     85.3387     79.0600      0.0000
  2818.0000    704.2703     92.9972     48.7979    287.6569     73.1432     85.9303     79.3336      0.0000
  2818.5000    704.2703     93.3966     49.5897    287.6755     72.0570     86.6125     79.1873      0.0000
  2819.0000    693.9824     96.3953     48.9847    287.8436     72.5535     86.7614     79.7958      0.0000
  2819.5000    672.6149     98.2512     49.5364    287.7561     73.7000     88.2165     80.4866      0.0000
  2820.0000    693.1910     99.8922     49.9208    287.6729     74.9180     88.6706     80.7672      0.0000
  2820.5000    676.5719    103.5282     49.8864    287.6300     73.5998     86.7335     79.8529      0.0000
  2821.0000    700.3134    111.8310     50.9760    287.6035     72.0463     86.4769     79.5541      0.0000
  2821.5000    709.0187    118.5295     50.0457    287.5894     72.3008     87.9244     79.7648      0.0000
  2822.0000    698.7307    117.2596     48.3792    287.8597     70.0085     86.4881     78.4741      0.0000
  2822.5000    686.8599    113.8861     46.8855    288.0112     67.6543     84.5327     76.3472      0.0000
  2823.0000    708.2273    105.4398     45.6170    288.0558     67.2077     83.3074     75.5592      0.0000
  2823.5000    683.6943     96.8552     45.9582    288.0472     67.0558     83.8250     75.9387      0.0000
  2824.0000    697.9393     96.3741     46.1587    287.7942     68.9610     82.5450     75.4401      0.0000
  2824.5000    706.6445     97.5240     44.5997    287.6019     67.1221     80.3255     73.0716      0.0000
  2825.0000    705.8531     99.7542     42.7112    287.6006     63.9506     81.0830     71.5120      0.0000
  2825.5000    679.7374    115.5335     42.4262    287.8615     63.4375     77.2544     70.1787      0.0000
  2826.0000    679.7374    131.5801     43.2284    287.9391     63.7082     76.2628     70.0591      0.0000
  2826.5000    690.0254    136.1483     44.4254    287.9571     62.8586     77.5349     70.0960      0.0000
  2827.0000    706.6445    132.1317     44.4139    288.0717     60.9183     76.3695     69.2647      0.0000
  2827.5000    707.4359    126.3985     43.8512    287.9798     61.1323     76.4351     69.0662      0.0000
  2828.0000    695.5651    124.1409     43.3029    287.4806     62.8094     75.8099     69.6101      0.0000
  2828.5000    676.5719    114.2778     43.2630    287.0401     63.5452     76.3309     69.9719      0.0000
  2829.0000    698.7307    101.8272     42.5127    287.1953     64.3199     76.2944     69.5337      0.0000
